{
"type": "FeatureCollection",
"crs": { "type": "name", "properties": { "name": "urn:ogc:def:crs:OGC:1.3:CRS84" } },
                                                                                
"features": [
{ "type": "Feature", "properties": { "id": "940GZZLUACT", "name": "Acton Town", "nlc_id": 500, "nr_id": null, "category": "LU" }, "geometry": { "type": "Point", "coordinates": [ -0.279916677702772, 51.502643593524958 ] } },
{ "type": "Feature", "properties": { "id": "940GZZLUBBN", "name": "Barbican", "nlc_id": 501, "nr_id": null, "category": "LU" }, "geometry": { "type": "Point", "coordinates": [ -0.097792377549488, 51.520214993538495 ] } },
{ "type": "Feature", "properties": { "id": "940GZZLUALD", "name": "Aldgate", "nlc_id": 502, "nr_id": null, "category": "LU" }, "geometry": { "type": "Point", "coordinates": [ -0.075715577538788, 51.514096393529975 ] } },
{ "type": "Feature", "properties": { "id": "940GZZLUADE", "name": "Aldgate East", "nlc_id": 503, "nr_id": null, "category": "LU" }, "geometry": { "type": "Point", "coordinates": [ -0.071876577534962, 51.515147193531021 ] } },
{ "type": "Feature", "properties": { "id": "940GZZDLSIT", "name": "Stratford International", "nlc_id": 504, "nr_id": null, "category": "Add DLR" }, "geometry": { "type": "Point", "coordinates": [ -0.008861077459836, 51.545762993564942 ] } },
{ "type": "Feature", "properties": { "id": "940GZZLUALP", "name": "Alperton", "nlc_id": 505, "nr_id": null, "category": "LU" }, "geometry": { "type": "Point", "coordinates": [ -0.299454777682801, 51.540554793572319 ] } },
{ "type": "Feature", "properties": { "id": "940GZZLUAGL", "name": "Angel", "nlc_id": 507, "nr_id": null, "category": "LU" }, "geometry": { "type": "Point", "coordinates": [ -0.1061299775449, 51.53182149355311 ] } },
{ "type": "Feature", "properties": { "id": "940GZZLUACY", "name": "Archway", "nlc_id": 508, "nr_id": null, "category": "LU" }, "geometry": { "type": "Point", "coordinates": [ -0.134745277535163, 51.565370993595565 ] } },
{ "type": "Feature", "properties": { "id": "940GZZLUASG", "name": "Arnos Grove", "nlc_id": 509, "nr_id": null, "category": "LU" }, "geometry": { "type": "Point", "coordinates": [ -0.133268777486765, 51.616475593658272 ] } },
{ "type": "Feature", "properties": { "id": "940GZZLUASL", "name": "Arsenal", "nlc_id": 510, "nr_id": null, "category": "LU" }, "geometry": { "type": "Point", "coordinates": [ -0.108099314254516, 51.55782418348403 ] } },
{ "type": "Feature", "properties": { "id": "940GZZLUBST", "name": "Baker Street", "nlc_id": 511, "nr_id": null, "category": "LU" }, "geometry": { "type": "Point", "coordinates": [ -0.155511977590466, 51.522500793544047 ] } },
{ "type": "Feature", "properties": { "id": "940GZZLUBLM", "name": "Balham", "nlc_id": 512, "nr_id": null, "category": "LU" }, "geometry": { "type": "Point", "coordinates": [ -0.152987877662283, 51.443164393447162 ] } },
{ "type": "Feature", "properties": { "id": "940GZZLUBNK", "name": "Bank", "nlc_id": 513, "nr_id": null, "category": "LU" }, "geometry": { "type": "Point", "coordinates": [ -0.088989613810087, 51.513449580343554 ] } },
{ "type": "Feature", "properties": { "id": "940GZZLUMMT", "name": "Monument", "nlc_id": 644, "nr_id": null, "category": "LU" }, "geometry": { "type": "Point", "coordinates": [ -0.086099988774851, 51.510649996763135 ] } },
{ "type": "Feature", "properties": { "id": "940GZZLUBKG", "name": "Barking", "nlc_id": 514, "nr_id": null, "category": "LU" }, "geometry": { "type": "Point", "coordinates": [ 0.081200011300117, 51.539499996775923 ] } },
{ "type": "Feature", "properties": { "id": "940GZZLUBKE", "name": "Barkingside", "nlc_id": 515, "nr_id": null, "category": "LU" }, "geometry": { "type": "Point", "coordinates": [ 0.088580022648915, 51.585649693607486 ] } },
{ "type": "Feature", "properties": { "id": "940GZZLUBSC", "name": "Barons Court", "nlc_id": 516, "nr_id": null, "category": "LU" }, "geometry": { "type": "Point", "coordinates": [ -0.213748777664103, 51.490259893507137 ] } },
{ "type": "Feature", "properties": { "id": "940GZZLUBWT", "name": "Bayswater", "nlc_id": 517, "nr_id": null, "category": "LU" }, "geometry": { "type": "Point", "coordinates": [ -0.187836877624161, 51.512332993533015 ] } },
{ "type": "Feature", "properties": { "id": "940GZZLUBEC", "name": "Becontree", "nlc_id": 518, "nr_id": null, "category": "LU" }, "geometry": { "type": "Point", "coordinates": [ 0.127268922634429, 51.540323493549785 ] } },
{ "type": "Feature", "properties": { "id": "940GZZLUBZP", "name": "Belsize Park", "nlc_id": 519, "nr_id": null, "category": "LU" }, "geometry": { "type": "Point", "coordinates": [ -0.16470417757164, 51.550275093578492 ] } },
{ "type": "Feature", "properties": { "id": "940GZZLUBLG", "name": "Bethnal Green", "nlc_id": 520, "nr_id": null, "category": "LU" }, "geometry": { "type": "Point", "coordinates": [ -0.055488477511335, 51.527473193545205 ] } },
{ "type": "Feature", "properties": { "id": "940GZZLUBKF", "name": "Blackfriars", "nlc_id": 521, "nr_id": null, "category": "LU" }, "geometry": { "type": "Point", "coordinates": [ -0.103139977561319, 51.511774093528459 ] } },
{ "type": "Feature", "properties": { "id": "940GZZLUBLR", "name": "Blackhorse Road", "nlc_id": 522, "nr_id": null, "category": "LU" }, "geometry": { "type": "Point", "coordinates": [ -0.040699988722464, 51.586999996808558 ] } },
{ "type": "Feature", "properties": { "id": "940GZZDLKGV", "name": "King George V", "nlc_id": 523, "nr_id": null, "category": "Add DLR" }, "geometry": { "type": "Point", "coordinates": [ 0.062157963981968, 51.501951623651117 ] } },
{ "type": "Feature", "properties": { "id": "940GZZLUBND", "name": "Bond Street", "nlc_id": 524, "nr_id": null, "category": "LU" }, "geometry": { "type": "Point", "coordinates": [ -0.148986077593161, 51.514325393533746 ] } },
{ "type": "Feature", "properties": { "id": "940GZZLUBOR", "name": "Borough", "nlc_id": 525, "nr_id": null, "category": "LU" }, "geometry": { "type": "Point", "coordinates": [ -0.093409977564032, 51.501093593514952 ] } },
{ "type": "Feature", "properties": { "id": "940GZZLUBOS", "name": "Boston Manor", "nlc_id": 526, "nr_id": null, "category": "LU" }, "geometry": { "type": "Point", "coordinates": [ -0.324733377743305, 51.495748293518147 ] } },
{ "type": "Feature", "properties": { "id": "940GZZLUBDS", "name": "Bounds Green", "nlc_id": 527, "nr_id": null, "category": "LU" }, "geometry": { "type": "Point", "coordinates": [ -0.124134477488599, 51.607065793646214 ] } },
{ "type": "Feature", "properties": { "id": "940GZZLUBWR", "name": "Bow Road", "nlc_id": 528, "nr_id": null, "category": "LU" }, "geometry": { "type": "Point", "coordinates": [ -0.024841577489257, 51.526872593542834 ] } },
{ "type": "Feature", "properties": { "id": "940GZZLUBTX", "name": "Brent Cross", "nlc_id": 529, "nr_id": null, "category": "LU" }, "geometry": { "type": "Point", "coordinates": [ -0.213553277584126, 51.576700193613192 ] } },
{ "type": "Feature", "properties": { "id": "940GZZLUBBB", "name": "Bromley-by-Bow", "nlc_id": 530, "nr_id": null, "category": "LU" }, "geometry": { "type": "Point", "coordinates": [ -0.01158507748149, 51.524736593539501 ] } },
{ "type": "Feature", "properties": { "id": "940GZZLUBTK", "name": "Burnt Oak", "nlc_id": 532, "nr_id": null, "category": "LU" }, "geometry": { "type": "Point", "coordinates": [ -0.263952177598458, 51.602844893647678 ] } },
{ "type": "Feature", "properties": { "id": "940GZZDLLCA", "name": "London City Airport", "nlc_id": 533, "nr_id": null, "category": "Add DLR" }, "geometry": { "type": "Point", "coordinates": [ 0.048011822542421, 51.503675593510486 ] } },
{ "type": "Feature", "properties": { "id": "940GZZLUCAR", "name": "Caledonian Road", "nlc_id": 534, "nr_id": null, "category": "LU" }, "geometry": { "type": "Point", "coordinates": [ -0.118367177538664, 51.548373493573912 ] } },
{ "type": "Feature", "properties": { "id": "940GZZLUCTN", "name": "Camden Town", "nlc_id": 535, "nr_id": null, "category": "LU" }, "geometry": { "type": "Point", "coordinates": [ -0.142556577565515, 51.53894039356355 ] } },
{ "type": "Feature", "properties": { "id": "940GZZLUCST", "name": "Cannon Street", "nlc_id": 536, "nr_id": null, "category": "LU" }, "geometry": { "type": "Point", "coordinates": [ -0.090323177552146, 51.511391293527403 ] } },
{ "type": "Feature", "properties": { "id": "940GZZLUCPK", "name": "Canons Park", "nlc_id": 537, "nr_id": null, "category": "LU" }, "geometry": { "type": "Point", "coordinates": [ -0.294744277617552, 51.60775649365506 ] } },
{ "type": "Feature", "properties": { "id": "940GZZDLPDK", "name": "Pontoon Dock", "nlc_id": 538, "nr_id": null, "category": "Add DLR" }, "geometry": { "type": "Point", "coordinates": [ 0.032703822529881, 51.502214393509625 ] } },
{ "type": "Feature", "properties": { "id": "940GZZLUCFM", "name": "Chalk Farm", "nlc_id": 540, "nr_id": null, "category": "LU" }, "geometry": { "type": "Point", "coordinates": [ -0.153469977568823, 51.544201793570522 ] } },
{ "type": "Feature", "properties": { "id": "940GZZLUCHL", "name": "Chancery Lane", "nlc_id": 541, "nr_id": null, "category": "LU" }, "geometry": { "type": "Point", "coordinates": [ -0.112121377562111, 51.518111593536631 ] } },
{ "type": "Feature", "properties": { "id": "940GZZLUEMB", "name": "Embankment", "nlc_id": 542, "nr_id": null, "category": "LU" }, "geometry": { "type": "Point", "coordinates": [ -0.122576577580222, 51.5070139935236 ] } },
{ "type": "Feature", "properties": { "id": "940GZZLUCWP", "name": "Chiswick Park", "nlc_id": 545, "nr_id": null, "category": "LU" }, "geometry": { "type": "Point", "coordinates": [ -0.268121477701242, 51.494579393514599 ] } },
{ "type": "Feature", "properties": { "id": "940GZZLUCPC", "name": "Clapham Common", "nlc_id": 547, "nr_id": null, "category": "LU" }, "geometry": { "type": "Point", "coordinates": [ -0.137588477633294, 51.461986093469378 ] } },
{ "type": "Feature", "properties": { "id": "940GZZLUCPN", "name": "Clapham North", "nlc_id": 548, "nr_id": null, "category": "LU" }, "geometry": { "type": "Point", "coordinates": [ -0.129898377624655, 51.465117793472899 ] } },
{ "type": "Feature", "properties": { "id": "940GZZLUCPS", "name": "Clapham South", "nlc_id": 549, "nr_id": null, "category": "LU" }, "geometry": { "type": "Point", "coordinates": [ -0.147584277649323, 51.452762893458605 ] } },
{ "type": "Feature", "properties": { "id": "940GZZLUCKS", "name": "Cockfosters", "nlc_id": 550, "nr_id": null, "category": "LU" }, "geometry": { "type": "Point", "coordinates": [ -0.149350277466469, 51.6516050937024 ] } },
{ "type": "Feature", "properties": { "id": "940GZZLUCND", "name": "Colindale", "nlc_id": 551, "nr_id": null, "category": "LU" }, "geometry": { "type": "Point", "coordinates": [ -0.249783277594519, 51.595349093637779 ] } },
{ "type": "Feature", "properties": { "id": "940GZZLUCSD", "name": "Colliers Wood", "nlc_id": 552, "nr_id": null, "category": "LU" }, "geometry": { "type": "Point", "coordinates": [ -0.178090477704313, 51.418115093417747 ] } },
{ "type": "Feature", "properties": { "id": "940GZZLUCGN", "name": "Covent Garden", "nlc_id": 553, "nr_id": null, "category": "LU" }, "geometry": { "type": "Point", "coordinates": [ -0.124196077575809, 51.513059993531037 ] } },
{ "type": "Feature", "properties": { "id": "940GZZLUDGE", "name": "Dagenham East", "nlc_id": 555, "nr_id": null, "category": "LU" }, "geometry": { "type": "Point", "coordinates": [ 0.16564162266573, 51.544159993551638 ] } },
{ "type": "Feature", "properties": { "id": "940GZZLUDGY", "name": "Dagenham Heathway", "nlc_id": 556, "nr_id": null, "category": "LU" }, "geometry": { "type": "Point", "coordinates": [ 0.147699922650456, 51.54167219354995 ] } },
{ "type": "Feature", "properties": { "id": "940GZZLUDOH", "name": "Dollis Hill", "nlc_id": 558, "nr_id": null, "category": "LU" }, "geometry": { "type": "Point", "coordinates": [ -0.239229077626298, 51.55207969358402 ] } },
{ "type": "Feature", "properties": { "id": "940GZZDLWSV", "name": "West Silvertown", "nlc_id": 559, "nr_id": null, "category": "Add DLR" }, "geometry": { "type": "Point", "coordinates": [ 0.02212532252282, 51.502928693511109 ] } },
{ "type": "Feature", "properties": { "id": "940GZZLUEBY", "name": "Ealing Broadway", "nlc_id": 560, "nr_id": null, "category": "LU" }, "geometry": { "type": "Point", "coordinates": [ -0.30154337770789, 51.515199996770605 ] } },
{ "type": "Feature", "properties": { "id": "940GZZLUECM", "name": "Ealing Common", "nlc_id": 561, "nr_id": null, "category": "LU" }, "geometry": { "type": "Point", "coordinates": [ -0.288181177702376, 51.50990669353417 ] } },
{ "type": "Feature", "properties": { "id": "940GZZLUECT", "name": "Earl's Court", "nlc_id": 562, "nr_id": null, "category": "LU" }, "geometry": { "type": "Point", "coordinates": [ -0.194168077648234, 51.491481693507815 ] } },
{ "type": "Feature", "properties": { "id": "940GZZLUEAN", "name": "East Acton", "nlc_id": 563, "nr_id": null, "category": "LU" }, "geometry": { "type": "Point", "coordinates": [ -0.24757217766509, 51.516869193541119 ] } },
{ "type": "Feature", "properties": { "id": "940GZZLUEAE", "name": "Eastcote", "nlc_id": 564, "nr_id": null, "category": "LU" }, "geometry": { "type": "Point", "coordinates": [ -0.397074977725044, 51.576607793620596 ] } },
{ "type": "Feature", "properties": { "id": "940GZZLUEFY", "name": "East Finchley", "nlc_id": 565, "nr_id": null, "category": "LU" }, "geometry": { "type": "Point", "coordinates": [ -0.165218577537547, 51.587566293624306 ] } },
{ "type": "Feature", "properties": { "id": "940GZZLUEHM", "name": "East Ham", "nlc_id": 566, "nr_id": null, "category": "LU" }, "geometry": { "type": "Point", "coordinates": [ 0.052011422578713, 51.5392428935534 ] } },
{ "type": "Feature", "properties": { "id": "940GZZLUEPY", "name": "East Putney", "nlc_id": 567, "nr_id": null, "category": "LU" }, "geometry": { "type": "Point", "coordinates": [ -0.21106177769097, 51.459069393468916 ] } },
{ "type": "Feature", "properties": { "id": "940GZZLUEGW", "name": "Edgware", "nlc_id": 568, "nr_id": null, "category": "LU" }, "geometry": { "type": "Point", "coordinates": [ -0.275503677597079, 51.61398929366193 ] } },
{ "type": "Feature", "properties": { "id": "940GZZLUERC", "name": "Edgware Road", "nlc_id": 569, "nr_id": null, "category": "LU" }, "geometry": { "type": "Point", "coordinates": [ -0.168087777602467, 51.519731493541222 ] } },
{ "type": "Feature", "properties": { "id": "940GZZLUEAC", "name": "Elephant & Castle", "nlc_id": 570, "nr_id": null, "category": "LU" }, "geometry": { "type": "Point", "coordinates": [ -0.100544977574648, 51.495383293508361 ] } },
{ "type": "Feature", "properties": { "id": "940GZZLUEPK", "name": "Elm Park", "nlc_id": 571, "nr_id": null, "category": "LU" }, "geometry": { "type": "Point", "coordinates": [ 0.197463622693767, 51.549642693555874 ] } },
{ "type": "Feature", "properties": { "id": "940GZZDLWLA", "name": "Woolwich Arsenal", "nlc_id": 573, "nr_id": null, "category": "Add DLR" }, "geometry": { "type": "Point", "coordinates": [ 0.069384622545396, 51.490297193492985 ] } },
{ "type": "Feature", "properties": { "id": "940GZZLUEUS", "name": "Euston", "nlc_id": 574, "nr_id": null, "category": "LU" }, "geometry": { "type": "Point", "coordinates": [ -0.134285623119906, 51.528432375871077 ] } },
{ "type": "Feature", "properties": { "id": "940GZZLUESQ", "name": "Euston Square", "nlc_id": 575, "nr_id": null, "category": "LU" }, "geometry": { "type": "Point", "coordinates": [ -0.135533877572553, 51.525683993547013 ] } },
{ "type": "Feature", "properties": { "id": "940GZZLUFLP", "name": "Fairlop", "nlc_id": 576, "nr_id": null, "category": "LU" }, "geometry": { "type": "Point", "coordinates": [ 0.091113222660418, 51.595949243619842 ] } },
{ "type": "Feature", "properties": { "id": "940GZZLUFCN", "name": "Farringdon", "nlc_id": 577, "nr_id": null, "category": "LU" }, "geometry": { "type": "Point", "coordinates": [ -0.104665677554609, 51.520206993538828 ] } },
{ "type": "Feature", "properties": { "id": "940GZZLUFYC", "name": "Finchley Central", "nlc_id": 578, "nr_id": null, "category": "LU" }, "geometry": { "type": "Point", "coordinates": [ -0.191944077545643, 51.600683193641729 ] } },
{ "type": "Feature", "properties": { "id": "940GZZLUFYR", "name": "Finchley Road", "nlc_id": 579, "nr_id": null, "category": "LU" }, "geometry": { "type": "Point", "coordinates": [ -0.180883777586501, 51.547377393575651 ] } },
{ "type": "Feature", "properties": { "id": "940GZZLUFPK", "name": "Finsbury Park", "nlc_id": 580, "nr_id": null, "category": "LU" }, "geometry": { "type": "Point", "coordinates": [ -0.106337557593489, 51.564638574540631 ] } },
{ "type": "Feature", "properties": { "id": "940GZZLUFBY", "name": "Fulham Broadway", "nlc_id": 581, "nr_id": null, "category": "LU" }, "geometry": { "type": "Point", "coordinates": [ -0.19528087765954, 51.48018419349404 ] } },
{ "type": "Feature", "properties": { "id": "940GZZLUGTH", "name": "Gants Hill", "nlc_id": 582, "nr_id": null, "category": "LU" }, "geometry": { "type": "Point", "coordinates": [ 0.066350622624212, 51.576608993597944 ] } },
{ "type": "Feature", "properties": { "id": "940GZZLUGTR", "name": "Gloucester Road", "nlc_id": 583, "nr_id": null, "category": "LU" }, "geometry": { "type": "Point", "coordinates": [ -0.183471777637459, 51.494438367919862 ] } },
{ "type": "Feature", "properties": { "id": "940GZZLUGGN", "name": "Golders Green", "nlc_id": 584, "nr_id": null, "category": "LU" }, "geometry": { "type": "Point", "coordinates": [ -0.194086177573352, 51.572397293606983 ] } },
{ "type": "Feature", "properties": { "id": "940GZZLUGHK", "name": "Goldhawk Road", "nlc_id": 585, "nr_id": null, "category": "LU" }, "geometry": { "type": "Point", "coordinates": [ -0.226673977663048, 51.501946693521965 ] } },
{ "type": "Feature", "properties": { "id": "940GZZLUGDG", "name": "Goodge Street", "nlc_id": 586, "nr_id": null, "category": "LU" }, "geometry": { "type": "Point", "coordinates": [ -0.134358177576474, 51.52051499354063 ] } },
{ "type": "Feature", "properties": { "id": "940GZZLUGPS", "name": "Great Portland Street", "nlc_id": 588, "nr_id": null, "category": "LU" }, "geometry": { "type": "Point", "coordinates": [ -0.143920877580543, 51.523836693545121 ] } },
{ "type": "Feature", "properties": { "id": "940GZZLUGFD", "name": "Greenford", "nlc_id": 589, "nr_id": null, "category": "LU" }, "geometry": { "type": "Point", "coordinates": [ -0.344816277716102, 51.542187693576054 ] } },
{ "type": "Feature", "properties": { "id": "940GZZLUGPK", "name": "Green Park", "nlc_id": 590, "nr_id": null, "category": "LU" }, "geometry": { "type": "Point", "coordinates": [ -0.143118585432915, 51.506557420921375 ] } },
{ "type": "Feature", "properties": { "id": "940GZZLUGBY", "name": "Gunnersbury", "nlc_id": 591, "nr_id": null, "category": "LU" }, "geometry": { "type": "Point", "coordinates": [ -0.275379777709488, 51.49161429351124 ] } },
{ "type": "Feature", "properties": { "id": "940GZZLUHLT", "name": "Hainault", "nlc_id": 592, "nr_id": null, "category": "LU" }, "geometry": { "type": "Point", "coordinates": [ 0.093471822669412, 51.603709493629154 ] } },
{ "type": "Feature", "properties": { "id": "940GZZLUHSD", "name": "Hammersmith", "nlc_id": 593, "nr_id": null, "category": "LU" }, "geometry": { "type": "Point", "coordinates": [ -0.223330877669606, 51.492122493509775 ] } },
{ "type": "Feature", "properties": { "id": "940GZZLUHTD", "name": "Hampstead", "nlc_id": 594, "nr_id": null, "category": "LU" }, "geometry": { "type": "Point", "coordinates": [ -0.178195677576137, 51.556394193586598 ] } },
{ "type": "Feature", "properties": { "id": "940GZZLUHGR", "name": "Hanger Lane", "nlc_id": 595, "nr_id": null, "category": "LU" }, "geometry": { "type": "Point", "coordinates": [ -0.293286877687512, 51.530297693559447 ] } },
{ "type": "Feature", "properties": { "id": "940GZZLUHSN", "name": "Harlesden", "nlc_id": 596, "nr_id": null, "category": "LU" }, "geometry": { "type": "Point", "coordinates": [ -0.257953677654998, 51.536369993565465 ] } },
{ "type": "Feature", "properties": { "id": "940GZZLUHAW", "name": "Harrow & Wealdstone", "nlc_id": 597, "nr_id": null, "category": "LU" }, "geometry": { "type": "Point", "coordinates": [ -0.335398777662966, 51.592321293637653 ] } },
{ "type": "Feature", "properties": { "id": "940GZZLUHOH", "name": "Harrow-on-the-Hill", "nlc_id": 598, "nr_id": null, "category": "LU" }, "geometry": { "type": "Point", "coordinates": [ -0.336304677675632, 51.579237693621508 ] } },
{ "type": "Feature", "properties": { "id": "940GZZLUWLA", "name": "Wood Lane", "nlc_id": 599, "nr_id": null, "category": "LU" }, "geometry": { "type": "Point", "coordinates": [ -0.2237116776533, 51.510073893531789 ] } },
{ "type": "Feature", "properties": { "id": "940GZZLUHCL", "name": "Hendon Central", "nlc_id": 601, "nr_id": null, "category": "LU" }, "geometry": { "type": "Point", "coordinates": [ -0.226098677587722, 51.583132893621666 ] } },
{ "type": "Feature", "properties": { "id": "940GZZLUHBT", "name": "High Barnet", "nlc_id": 602, "nr_id": null, "category": "LU" }, "geometry": { "type": "Point", "coordinates": [ -0.194815877501563, 51.65093239370389 ] } },
{ "type": "Feature", "properties": { "id": "940GZZLUHAI", "name": "Highbury & Islington", "nlc_id": 603, "nr_id": null, "category": "LU" }, "geometry": { "type": "Point", "coordinates": [ -0.103749988764511, 51.546999996785758 ] } },
{ "type": "Feature", "properties": { "id": "940GZZLUHGT", "name": "Highgate", "nlc_id": 604, "nr_id": null, "category": "LU" }, "geometry": { "type": "Point", "coordinates": [ -0.145781977532085, 51.577644593611161 ] } },
{ "type": "Feature", "properties": { "id": "940GZZLUHSK", "name": "High Street Kensington", "nlc_id": 605, "nr_id": null, "category": "LU" }, "geometry": { "type": "Point", "coordinates": [ -0.19265997763834, 51.500941093519316 ] } },
{ "type": "Feature", "properties": { "id": "940GZZLUHGD", "name": "Hillingdon", "nlc_id": 606, "nr_id": null, "category": "LU" }, "geometry": { "type": "Point", "coordinates": [ -0.450198377787245, 51.553725493594193 ] } },
{ "type": "Feature", "properties": { "id": "940GZZLUHBN", "name": "Holborn", "nlc_id": 607, "nr_id": null, "category": "LU" }, "geometry": { "type": "Point", "coordinates": [ -0.120177107160988, 51.517615031843732 ] } },
{ "type": "Feature", "properties": { "id": "940GZZLUHPK", "name": "Holland Park", "nlc_id": 608, "nr_id": null, "category": "LU" }, "geometry": { "type": "Point", "coordinates": [ -0.205642077642248, 51.507276593527614 ] } },
{ "type": "Feature", "properties": { "id": "940GZZLUHWY", "name": "Holloway Road", "nlc_id": 609, "nr_id": null, "category": "LU" }, "geometry": { "type": "Point", "coordinates": [ -0.113008677530613, 51.552730293579017 ] } },
{ "type": "Feature", "properties": { "id": "940GZZLUHCH", "name": "Hornchurch", "nlc_id": 610, "nr_id": null, "category": "LU" }, "geometry": { "type": "Point", "coordinates": [ 0.218541622712985, 51.554005093559482 ] } },
{ "type": "Feature", "properties": { "id": "940GZZLUHWC", "name": "Hounslow Central", "nlc_id": 611, "nr_id": null, "category": "LU" }, "geometry": { "type": "Point", "coordinates": [ -0.366413077797696, 51.471306093489595 ] } },
{ "type": "Feature", "properties": { "id": "940GZZLUHWE", "name": "Hounslow East", "nlc_id": 612, "nr_id": null, "category": "LU" }, "geometry": { "type": "Point", "coordinates": [ -0.356313077788182, 51.473228393491588 ] } },
{ "type": "Feature", "properties": { "id": "940GZZLUHWT", "name": "Hounslow West", "nlc_id": 613, "nr_id": null, "category": "LU" }, "geometry": { "type": "Point", "coordinates": [ -0.386447077811063, 51.473525393492984 ] } },
{ "type": "Feature", "properties": { "id": "940GZZLUHPC", "name": "Hyde Park Corner", "nlc_id": 614, "nr_id": null, "category": "LU" }, "geometry": { "type": "Point", "coordinates": [ -0.15255737760638, 51.502960773520009 ] } },
{ "type": "Feature", "properties": { "id": "940GZZLUICK", "name": "Ickenham", "nlc_id": 615, "nr_id": null, "category": "LU" }, "geometry": { "type": "Point", "coordinates": [ -0.442056077773389, 51.561972393604123 ] } },
{ "type": "Feature", "properties": { "id": "940GZZLUKNG", "name": "Kennington", "nlc_id": 616, "nr_id": null, "category": "LU" }, "geometry": { "type": "Point", "coordinates": [ -0.105552791207256, 51.488817982783864 ] } },
{ "type": "Feature", "properties": { "id": "940GZZLUKSL", "name": "Kensal Green", "nlc_id": 617, "nr_id": null, "category": "LU" }, "geometry": { "type": "Point", "coordinates": [ -0.224595877635037, 51.530572993556966 ] } },
{ "type": "Feature", "properties": { "id": "940GZZLUKOY", "name": "Kensington (Olympia)", "nlc_id": 618, "nr_id": null, "category": "LU" }, "geometry": { "type": "Point", "coordinates": [ -0.20959267752438, 51.497533782081682 ] } },
{ "type": "Feature", "properties": { "id": "940GZZLUKSH", "name": "Kentish Town", "nlc_id": 619, "nr_id": null, "category": "LU" }, "geometry": { "type": "Point", "coordinates": [ -0.140740165727417, 51.550310332557039 ] } },
{ "type": "Feature", "properties": { "id": "940GZZLUKEN", "name": "Kenton", "nlc_id": 620, "nr_id": null, "category": "LU" }, "geometry": { "type": "Point", "coordinates": [ -0.31661997765838, 51.581530493623539 ] } },
{ "type": "Feature", "properties": { "id": "940GZZLUKWG", "name": "Kew Gardens", "nlc_id": 621, "nr_id": null, "category": "LU" }, "geometry": { "type": "Point", "coordinates": [ -0.285013077730211, 51.477077293493792 ] } },
{ "type": "Feature", "properties": { "id": "940GZZLUKBN", "name": "Kilburn", "nlc_id": 622, "nr_id": null, "category": "LU" }, "geometry": { "type": "Point", "coordinates": [ -0.205286177605242, 51.54702469357634 ] } },
{ "type": "Feature", "properties": { "id": "940GZZLUKPK", "name": "Kilburn Park", "nlc_id": 623, "nr_id": null, "category": "LU" }, "geometry": { "type": "Point", "coordinates": [ -0.19413387760779, 51.535154493561279 ] } },
{ "type": "Feature", "properties": { "id": "940GZZLUKBY", "name": "Kingsbury", "nlc_id": 624, "nr_id": null, "category": "LU" }, "geometry": { "type": "Point", "coordinates": [ -0.278622477626316, 51.584716493625905 ] } },
{ "type": "Feature", "properties": { "id": "940GZZLUKSX", "name": "King's Cross St. Pancras", "nlc_id": 625, "nr_id": null, "category": "LU" }, "geometry": { "type": "Point", "coordinates": [ -0.122943577558577, 51.530604793552435 ] } },
{ "type": "Feature", "properties": { "id": "940GZZLUKNB", "name": "Knightsbridge", "nlc_id": 626, "nr_id": null, "category": "LU" }, "geometry": { "type": "Point", "coordinates": [ -0.160591577613652, 51.501605693518712 ] } },
{ "type": "Feature", "properties": { "id": "940GZZLULAD", "name": "Ladbroke Grove", "nlc_id": 627, "nr_id": null, "category": "LU" }, "geometry": { "type": "Point", "coordinates": [ -0.210942177637006, 51.517268093540082 ] } },
{ "type": "Feature", "properties": { "id": "940GZZLULBN", "name": "Lambeth North", "nlc_id": 628, "nr_id": null, "category": "LU" }, "geometry": { "type": "Point", "coordinates": [ -0.112287477580118, 51.498886393513203 ] } },
{ "type": "Feature", "properties": { "id": "940GZZLULGT", "name": "Lancaster Gate", "nlc_id": 629, "nr_id": null, "category": "LU" }, "geometry": { "type": "Point", "coordinates": [ -0.175144877615051, 51.511871293531911 ] } },
{ "type": "Feature", "properties": { "id": "940GZZLULRD", "name": "Latimer Road", "nlc_id": 630, "nr_id": null, "category": "LU" }, "geometry": { "type": "Point", "coordinates": [ -0.217909477645846, 51.513396693535611 ] } },
{ "type": "Feature", "properties": { "id": "940GZZLULSQ", "name": "Leicester Square", "nlc_id": 631, "nr_id": null, "category": "LU" }, "geometry": { "type": "Point", "coordinates": [ -0.128489582411479, 51.511222713691758 ] } },
{ "type": "Feature", "properties": { "id": "940GZZLULYN", "name": "Leyton", "nlc_id": 632, "nr_id": null, "category": "LU" }, "geometry": { "type": "Point", "coordinates": [ -0.00540717744714, 51.556631293578 ] } },
{ "type": "Feature", "properties": { "id": "940GZZLULYS", "name": "Leytonstone", "nlc_id": 633, "nr_id": null, "category": "LU" }, "geometry": { "type": "Point", "coordinates": [ 0.008402622574192, 51.568581393591764 ] } },
{ "type": "Feature", "properties": { "id": "940GZZLULVT", "name": "Liverpool Street", "nlc_id": 634, "nr_id": null, "category": "LU" }, "geometry": { "type": "Point", "coordinates": [ -0.083213002823414, 51.517300028702479 ] } },
{ "type": "Feature", "properties": { "id": "940GZZLULNB", "name": "London Bridge", "nlc_id": 635, "nr_id": null, "category": "LU" }, "geometry": { "type": "Point", "coordinates": [ -0.0896349703114, 51.505020221546829 ] } },
{ "type": "Feature", "properties": { "id": "940GZZLUMVL", "name": "Maida Vale", "nlc_id": 637, "nr_id": null, "category": "LU" }, "geometry": { "type": "Point", "coordinates": [ -0.18577457760644, 51.529802493554364 ] } },
{ "type": "Feature", "properties": { "id": "940GZZLUMRH", "name": "Manor House", "nlc_id": 638, "nr_id": null, "category": "LU" }, "geometry": { "type": "Point", "coordinates": [ -0.09618567432953, 51.570490773189128 ] } },
{ "type": "Feature", "properties": { "id": "940GZZLUMSH", "name": "Mansion House", "nlc_id": 639, "nr_id": null, "category": "LU" }, "geometry": { "type": "Point", "coordinates": [ -0.093754077554213, 51.511910493528184 ] } },
{ "type": "Feature", "properties": { "id": "940GZZLUMBA", "name": "Marble Arch", "nlc_id": 640, "nr_id": null, "category": "LU" }, "geometry": { "type": "Point", "coordinates": [ -0.157835577600519, 51.513539793533191 ] } },
{ "type": "Feature", "properties": { "id": "940GZZLUMYB", "name": "Marylebone", "nlc_id": 641, "nr_id": null, "category": "LU" }, "geometry": { "type": "Point", "coordinates": [ -0.163221577596459, 51.522275993544099 ] } },
{ "type": "Feature", "properties": { "id": "940GZZLUMED", "name": "Mile End", "nlc_id": 642, "nr_id": null, "category": "LU" }, "geometry": { "type": "Point", "coordinates": [ -0.03344487749702, 51.525356303541464 ] } },
{ "type": "Feature", "properties": { "id": "940GZZLUMHL", "name": "Mill Hill East", "nlc_id": 643, "nr_id": null, "category": "LU" }, "geometry": { "type": "Point", "coordinates": [ -0.210150577552482, 51.60824999365191 ] } },
{ "type": "Feature", "properties": { "id": "940GZZLUMGT", "name": "Moorgate", "nlc_id": 645, "nr_id": null, "category": "LU" }, "geometry": { "type": "Point", "coordinates": [ -0.088290099658892, 51.518119772191973 ] } },
{ "type": "Feature", "properties": { "id": "940GZZLUMDN", "name": "Morden", "nlc_id": 647, "nr_id": null, "category": "LU" }, "geometry": { "type": "Point", "coordinates": [ -0.19473367773141, 51.402345493399224 ] } },
{ "type": "Feature", "properties": { "id": "940GZZLUMTC", "name": "Mornington Crescent", "nlc_id": 648, "nr_id": null, "category": "LU" }, "geometry": { "type": "Point", "coordinates": [ -0.138539277566756, 51.534357893557761 ] } },
{ "type": "Feature", "properties": { "id": "940GZZLUNDN", "name": "Neasden", "nlc_id": 649, "nr_id": null, "category": "LU" }, "geometry": { "type": "Point", "coordinates": [ -0.249963077632533, 51.554168193587046 ] } },
{ "type": "Feature", "properties": { "id": "940GZZLUNBP", "name": "Newbury Park", "nlc_id": 650, "nr_id": null, "category": "LU" }, "geometry": { "type": "Point", "coordinates": [ 0.089947322640486, 51.57559799359516 ] } },
{ "type": "Feature", "properties": { "id": "940GZZLUNAN", "name": "North Acton", "nlc_id": 653, "nr_id": null, "category": "LU" }, "geometry": { "type": "Point", "coordinates": [ -0.259713604032796, 51.523604738985973 ] } },
{ "type": "Feature", "properties": { "id": "940GZZLUNEN", "name": "North Ealing", "nlc_id": 654, "nr_id": null, "category": "LU" }, "geometry": { "type": "Point", "coordinates": [ -0.288535577695479, 51.51769459354373 ] } },
{ "type": "Feature", "properties": { "id": "940GZZLUNFD", "name": "Northfields", "nlc_id": 655, "nr_id": null, "category": "LU" }, "geometry": { "type": "Point", "coordinates": [ -0.31316233527367, 51.499603586084021 ] } },
{ "type": "Feature", "properties": { "id": "940GZZLUNHA", "name": "North Harrow", "nlc_id": 656, "nr_id": null, "category": "LU" }, "geometry": { "type": "Point", "coordinates": [ -0.36279747769082, 51.584999593629689 ] } },
{ "type": "Feature", "properties": { "id": "940GZZLUNHT", "name": "Northolt", "nlc_id": 657, "nr_id": null, "category": "LU" }, "geometry": { "type": "Point", "coordinates": [ -0.369070977729121, 51.54839089358466 ] } },
{ "type": "Feature", "properties": { "id": "940GZZLUNWY", "name": "North Wembley", "nlc_id": 659, "nr_id": null, "category": "LU" }, "geometry": { "type": "Point", "coordinates": [ -0.303874777666126, 51.562405893599404 ] } },
{ "type": "Feature", "properties": { "id": "940GZZLUNKP", "name": "Northwick Park", "nlc_id": 660, "nr_id": null, "category": "LU" }, "geometry": { "type": "Point", "coordinates": [ -0.317777077662058, 51.578488193619826 ] } },
{ "type": "Feature", "properties": { "id": "940GZZLUNOW", "name": "Northwood", "nlc_id": 661, "nr_id": null, "category": "LU" }, "geometry": { "type": "Point", "coordinates": [ -0.423729377714696, 51.610785493664061 ] } },
{ "type": "Feature", "properties": { "id": "940GZZLUNWH", "name": "Northwood Hills", "nlc_id": 662, "nr_id": null, "category": "LU" }, "geometry": { "type": "Point", "coordinates": [ -0.408962777712654, 51.600364893650536 ] } },
{ "type": "Feature", "properties": { "id": "940GZZLUNHG", "name": "Notting Hill Gate", "nlc_id": 663, "nr_id": null, "category": "LU" }, "geometry": { "type": "Point", "coordinates": [ -0.196094662388836, 51.509199772071049 ] } },
{ "type": "Feature", "properties": { "id": "940GZZLUOAK", "name": "Oakwood", "nlc_id": 664, "nr_id": null, "category": "LU" }, "geometry": { "type": "Point", "coordinates": [ -0.131485177456882, 51.647376693696238 ] } },
{ "type": "Feature", "properties": { "id": "940GZZLUODS", "name": "Old Street", "nlc_id": 665, "nr_id": null, "category": "LU" }, "geometry": { "type": "Point", "coordinates": [ -0.087541777536828, 51.525628393544615 ] } },
{ "type": "Feature", "properties": { "id": "940GZZLUOSY", "name": "Osterley", "nlc_id": 667, "nr_id": null, "category": "LU" }, "geometry": { "type": "Point", "coordinates": [ -0.352296477777852, 51.481124093501158 ] } },
{ "type": "Feature", "properties": { "id": "940GZZLUOVL", "name": "Oval", "nlc_id": 668, "nr_id": null, "category": "LU" }, "geometry": { "type": "Point", "coordinates": [ -0.112368477596056, 51.481829093492415 ] } },
{ "type": "Feature", "properties": { "id": "940GZZLUOXC", "name": "Oxford Circus", "nlc_id": 669, "nr_id": null, "category": "LU" }, "geometry": { "type": "Point", "coordinates": [ -0.142080199583744, 51.515307853799101 ] } },
{ "type": "Feature", "properties": { "id": "940GZZLUPAC", "name": "Paddington", "nlc_id": 670, "nr_id": null, "category": "LU" }, "geometry": { "type": "Point", "coordinates": [ -0.174490677755762, 51.515954753684063 ] } },
{ "type": "Feature", "properties": { "id": "940GZZLUPKR", "name": "Park Royal", "nlc_id": 671, "nr_id": null, "category": "LU" }, "geometry": { "type": "Point", "coordinates": [ -0.283955277683865, 51.526522793554427 ] } },
{ "type": "Feature", "properties": { "id": "940GZZLUPSG", "name": "Parsons Green", "nlc_id": 672, "nr_id": null, "category": "LU" }, "geometry": { "type": "Point", "coordinates": [ -0.201087177668429, 51.475302493488314 ] } },
{ "type": "Feature", "properties": { "id": "940GZZLUPVL", "name": "Perivale", "nlc_id": 673, "nr_id": null, "category": "LU" }, "geometry": { "type": "Point", "coordinates": [ -0.323579777704782, 51.536739693568556 ] } },
{ "type": "Feature", "properties": { "id": "940GZZLUPCC", "name": "Piccadilly Circus", "nlc_id": 674, "nr_id": null, "category": "LU" }, "geometry": { "type": "Point", "coordinates": [ -0.133441877585592, 51.509958793527694 ] } },
{ "type": "Feature", "properties": { "id": "940GZZLUPNR", "name": "Pinner", "nlc_id": 675, "nr_id": null, "category": "LU" }, "geometry": { "type": "Point", "coordinates": [ -0.380809777697734, 51.592713593639942 ] } },
{ "type": "Feature", "properties": { "id": "940GZZLUPLW", "name": "Plaistow", "nlc_id": 676, "nr_id": null, "category": "LU" }, "geometry": { "type": "Point", "coordinates": [ 0.016571422545199, 51.531157393545719 ] } },
{ "type": "Feature", "properties": { "id": "940GZZLUPRD", "name": "Preston Road", "nlc_id": 677, "nr_id": null, "category": "LU" }, "geometry": { "type": "Point", "coordinates": [ -0.295144477650568, 51.572074193611002 ] } },
{ "type": "Feature", "properties": { "id": "940GZZLUPYB", "name": "Putney Bridge", "nlc_id": 678, "nr_id": null, "category": "LU" }, "geometry": { "type": "Point", "coordinates": [ -0.208817477680685, 51.468344993480152 ] } },
{ "type": "Feature", "properties": { "id": "940GZZLUQBY", "name": "Queensbury", "nlc_id": 679, "nr_id": null, "category": "LU" }, "geometry": { "type": "Point", "coordinates": [ -0.286185477623434, 51.594172693637894 ] } },
{ "type": "Feature", "properties": { "id": "940GZZLUQPS", "name": "Queen's Park", "nlc_id": 680, "nr_id": null, "category": "LU" }, "geometry": { "type": "Point", "coordinates": [ -0.205505577617444, 51.533992793560337 ] } },
{ "type": "Feature", "properties": { "id": "940GZZLUQWY", "name": "Queensway", "nlc_id": 681, "nr_id": null, "category": "LU" }, "geometry": { "type": "Point", "coordinates": [ -0.187229777625402, 51.510500393530769 ] } },
{ "type": "Feature", "properties": { "id": "940GZZLURVP", "name": "Ravenscourt Park", "nlc_id": 682, "nr_id": null, "category": "LU" }, "geometry": { "type": "Point", "coordinates": [ -0.23579747767718, 51.494116693512751 ] } },
{ "type": "Feature", "properties": { "id": "940GZZLURYL", "name": "Rayners Lane", "nlc_id": 683, "nr_id": null, "category": "LU" }, "geometry": { "type": "Point", "coordinates": [ -0.371281377706343, 51.575188193617862 ] } },
{ "type": "Feature", "properties": { "id": "940GZZLURBG", "name": "Redbridge", "nlc_id": 684, "nr_id": null, "category": "LU" }, "geometry": { "type": "Point", "coordinates": [ 0.045411022608653, 51.576362793598989 ] } },
{ "type": "Feature", "properties": { "id": "940GZZLURGP", "name": "Regent's Park", "nlc_id": 685, "nr_id": null, "category": "LU" }, "geometry": { "type": "Point", "coordinates": [ -0.146499577582837, 51.523447193544797 ] } },
{ "type": "Feature", "properties": { "id": "940GZZLURMD", "name": "Richmond", "nlc_id": 686, "nr_id": null, "category": "LU" }, "geometry": { "type": "Point", "coordinates": [ -0.301184377755181, 51.463331293477545 ] } },
{ "type": "Feature", "properties": { "id": "940GZZLURYO", "name": "Royal Oak", "nlc_id": 690, "nr_id": null, "category": "LU" }, "geometry": { "type": "Point", "coordinates": [ -0.187989007164562, 51.519062747062932 ] } },
{ "type": "Feature", "properties": { "id": "940GZZLURSP", "name": "Ruislip", "nlc_id": 691, "nr_id": null, "category": "LU" }, "geometry": { "type": "Point", "coordinates": [ -0.421628033877908, 51.571372744415967 ] } },
{ "type": "Feature", "properties": { "id": "940GZZLURSG", "name": "Ruislip Gardens", "nlc_id": 692, "nr_id": null, "category": "LU" }, "geometry": { "type": "Point", "coordinates": [ -0.41059457775001, 51.560740893601483 ] } },
{ "type": "Feature", "properties": { "id": "940GZZLURSM", "name": "Ruislip Manor", "nlc_id": 693, "nr_id": null, "category": "LU" }, "geometry": { "type": "Point", "coordinates": [ -0.412388077739953, 51.573307393617092 ] } },
{ "type": "Feature", "properties": { "id": "940GZZLURSQ", "name": "Russell Square", "nlc_id": 694, "nr_id": null, "category": "LU" }, "geometry": { "type": "Point", "coordinates": [ -0.124203377566443, 51.523145293543379 ] } },
{ "type": "Feature", "properties": { "id": "940GZZLUSJP", "name": "St. James's Park", "nlc_id": 695, "nr_id": null, "category": "LU" }, "geometry": { "type": "Point", "coordinates": [ -0.133535677595277, 51.499611993515039 ] } },
{ "type": "Feature", "properties": { "id": "940GZZLUSJW", "name": "St. John's Wood", "nlc_id": 696, "nr_id": null, "category": "LU" }, "geometry": { "type": "Point", "coordinates": [ -0.174052177592964, 51.53483099356 ] } },
{ "type": "Feature", "properties": { "id": "940GZZLUSPU", "name": "St. Paul's", "nlc_id": 697, "nr_id": null, "category": "LU" }, "geometry": { "type": "Point", "coordinates": [ -0.097481954055126, 51.514924825767004 ] } },
{ "type": "Feature", "properties": { "id": "940GZZLUSVS", "name": "Seven Sisters", "nlc_id": 698, "nr_id": null, "category": "LU" }, "geometry": { "type": "Point", "coordinates": [ -0.072479988735856, 51.583599996807358 ] } },
{ "type": "Feature", "properties": { "id": "940GZZLUSBC", "name": "Shepherd's Bush", "nlc_id": 700, "nr_id": null, "category": "LU" }, "geometry": { "type": "Point", "coordinates": [ -0.217999988827092, 51.504449996762325 ] } },
{ "type": "Feature", "properties": { "id": "940GZZLUSSQ", "name": "Sloane Square", "nlc_id": 702, "nr_id": null, "category": "LU" }, "geometry": { "type": "Point", "coordinates": [ -0.156526177619202, 51.492348393507264 ] } },
{ "type": "Feature", "properties": { "id": "940GZZLUSNB", "name": "Snaresbrook", "nlc_id": 703, "nr_id": null, "category": "LU" }, "geometry": { "type": "Point", "coordinates": [ 0.021513622595187, 51.580729993605807 ] } },
{ "type": "Feature", "properties": { "id": "940GZZLUSEA", "name": "South Ealing", "nlc_id": 704, "nr_id": null, "category": "LU" }, "geometry": { "type": "Point", "coordinates": [ -0.307100965438706, 51.501029128944872 ] } },
{ "type": "Feature", "properties": { "id": "940GZZLUSFS", "name": "Southfields", "nlc_id": 705, "nr_id": null, "category": "LU" }, "geometry": { "type": "Point", "coordinates": [ -0.206705596651281, 51.445525285687793 ] } },
{ "type": "Feature", "properties": { "id": "940GZZLUSGT", "name": "Southgate", "nlc_id": 706, "nr_id": null, "category": "LU" }, "geometry": { "type": "Point", "coordinates": [ -0.127810677468002, 51.632333593677515 ] } },
{ "type": "Feature", "properties": { "id": "940GZZLUSHH", "name": "South Harrow", "nlc_id": 707, "nr_id": null, "category": "LU" }, "geometry": { "type": "Point", "coordinates": [ -0.352209777701227, 51.564662093604106 ] } },
{ "type": "Feature", "properties": { "id": "940GZZLUSKS", "name": "South Kensington", "nlc_id": 708, "nr_id": null, "category": "LU" }, "geometry": { "type": "Point", "coordinates": [ -0.172900081970024, 51.494037097793544 ] } },
{ "type": "Feature", "properties": { "id": "940GZZLUSKT", "name": "South Kenton", "nlc_id": 709, "nr_id": null, "category": "LU" }, "geometry": { "type": "Point", "coordinates": [ -0.3083997776624, 51.570254093609272 ] } },
{ "type": "Feature", "properties": { "id": "940GZZLUSRP", "name": "South Ruislip", "nlc_id": 710, "nr_id": null, "category": "LU" }, "geometry": { "type": "Point", "coordinates": [ -0.399288377744613, 51.557034693596442 ] } },
{ "type": "Feature", "properties": { "id": "940GZZLUSWN", "name": "South Wimbledon", "nlc_id": 711, "nr_id": null, "category": "LU" }, "geometry": { "type": "Point", "coordinates": [ -0.192138077717397, 51.415328593414891 ] } },
{ "type": "Feature", "properties": { "id": "940GZZLUSWF", "name": "South Woodford", "nlc_id": 712, "nr_id": null, "category": "LU" }, "geometry": { "type": "Point", "coordinates": [ 0.027390822609971, 51.591931593619123 ] } },
{ "type": "Feature", "properties": { "id": "940GZZLUSFB", "name": "Stamford Brook", "nlc_id": 713, "nr_id": null, "category": "LU" }, "geometry": { "type": "Point", "coordinates": [ -0.245834677684014, 51.494938193514137 ] } },
{ "type": "Feature", "properties": { "id": "940GZZLUSTM", "name": "Stanmore", "nlc_id": 714, "nr_id": null, "category": "LU" }, "geometry": { "type": "Point", "coordinates": [ -0.30301637761326, 51.619392993669834 ] } },
{ "type": "Feature", "properties": { "id": "940GZZLUSGN", "name": "Stepney Green", "nlc_id": 715, "nr_id": null, "category": "LU" }, "geometry": { "type": "Point", "coordinates": [ -0.046728177510228, 51.521714593537752 ] } },
{ "type": "Feature", "properties": { "id": "940GZZLUSKW", "name": "Stockwell", "nlc_id": 716, "nr_id": null, "category": "LU" }, "geometry": { "type": "Point", "coordinates": [ -0.122501877612576, 51.472179893481147 ] } },
{ "type": "Feature", "properties": { "id": "940GZZLUSGP", "name": "Stonebridge Park", "nlc_id": 717, "nr_id": null, "category": "LU" }, "geometry": { "type": "Point", "coordinates": [ -0.275700377661601, 51.543881193575452 ] } },
{ "type": "Feature", "properties": { "id": "940GZZLUCHX", "name": "Charing Cross", "nlc_id": 718, "nr_id": null, "category": "LU" }, "geometry": { "type": "Point", "coordinates": [ -0.127361777583492, 51.507335393524201 ] } },
{ "type": "Feature", "properties": { "id": "940GZZLUSTD", "name": "Stratford", "nlc_id": 719, "nr_id": null, "category": "LU" }, "geometry": { "type": "Point", "coordinates": [ -0.003884473101292, 51.541494034642817 ] } },
{ "type": "Feature", "properties": { "id": "940GZZLUSUH", "name": "Sudbury Hill", "nlc_id": 720, "nr_id": null, "category": "LU" }, "geometry": { "type": "Point", "coordinates": [ -0.336681941298329, 51.556988162294019 ] } },
{ "type": "Feature", "properties": { "id": "940GZZLUSUT", "name": "Sudbury Town", "nlc_id": 721, "nr_id": null, "category": "LU" }, "geometry": { "type": "Point", "coordinates": [ -0.315803477685876, 51.550847893585626 ] } },
{ "type": "Feature", "properties": { "id": "940GZZLUSWC", "name": "Swiss Cottage", "nlc_id": 723, "nr_id": null, "category": "LU" }, "geometry": { "type": "Point", "coordinates": [ -0.174663277585554, 51.543335993570409 ] } },
{ "type": "Feature", "properties": { "id": "940GZZLUTMP", "name": "Temple", "nlc_id": 724, "nr_id": null, "category": "LU" }, "geometry": { "type": "Point", "coordinates": [ -0.113749977569882, 51.511061793528128 ] } },
{ "type": "Feature", "properties": { "id": "940GZZLUTBC", "name": "Tooting Bec", "nlc_id": 726, "nr_id": null, "category": "LU" }, "geometry": { "type": "Point", "coordinates": [ -0.15965047767429, 51.435598293438247 ] } },
{ "type": "Feature", "properties": { "id": "940GZZLUTBY", "name": "Tooting Broadway", "nlc_id": 727, "nr_id": null, "category": "LU" }, "geometry": { "type": "Point", "coordinates": [ -0.168185277687963, 51.427745393429049 ] } },
{ "type": "Feature", "properties": { "id": "940GZZLUTCR", "name": "Tottenham Court Road", "nlc_id": 728, "nr_id": null, "category": "LU" }, "geometry": { "type": "Point", "coordinates": [ -0.130523692445735, 51.516467463957248 ] } },
{ "type": "Feature", "properties": { "id": "940GZZLUTMH", "name": "Tottenham Hale", "nlc_id": 729, "nr_id": null, "category": "LU" }, "geometry": { "type": "Point", "coordinates": [ -0.05986998872892, 51.588429996809964 ] } },
{ "type": "Feature", "properties": { "id": "940GZZLUTAW", "name": "Totteridge & Whetstone", "nlc_id": 730, "nr_id": null, "category": "LU" }, "geometry": { "type": "Point", "coordinates": [ -0.1791527775086, 51.630365393677678 ] } },
{ "type": "Feature", "properties": { "id": "940GZZLUTWH", "name": "Tower Hill", "nlc_id": 731, "nr_id": null, "category": "LU" }, "geometry": { "type": "Point", "coordinates": [ -0.07775017754429, 51.509809993524847 ] } },
{ "type": "Feature", "properties": { "id": "940GZZLUTFP", "name": "Tufnell Park", "nlc_id": 733, "nr_id": null, "category": "LU" }, "geometry": { "type": "Point", "coordinates": [ -0.138432877545862, 51.556807993585245 ] } },
{ "type": "Feature", "properties": { "id": "940GZZLUTNG", "name": "Turnham Green", "nlc_id": 734, "nr_id": null, "category": "LU" }, "geometry": { "type": "Point", "coordinates": [ -0.254530077690411, 51.495143493514746 ] } },
{ "type": "Feature", "properties": { "id": "940GZZLUTPN", "name": "Turnpike Lane", "nlc_id": 735, "nr_id": null, "category": "LU" }, "geometry": { "type": "Point", "coordinates": [ -0.10284647748812, 51.590348193624585 ] } },
{ "type": "Feature", "properties": { "id": "940GZZLUUPM", "name": "Upminster", "nlc_id": 736, "nr_id": null, "category": "LU" }, "geometry": { "type": "Point", "coordinates": [ 0.253023822742335, 51.559013293562643 ] } },
{ "type": "Feature", "properties": { "id": "940GZZLUUPB", "name": "Upminster Bridge", "nlc_id": 737, "nr_id": null, "category": "LU" }, "geometry": { "type": "Point", "coordinates": [ 0.234693822728623, 51.558334193563354 ] } },
{ "type": "Feature", "properties": { "id": "940GZZLUUPY", "name": "Upney", "nlc_id": 738, "nr_id": null, "category": "LU" }, "geometry": { "type": "Point", "coordinates": [ 0.099727722612541, 51.538266593549146 ] } },
{ "type": "Feature", "properties": { "id": "940GZZLUUPK", "name": "Upton Park", "nlc_id": 739, "nr_id": null, "category": "LU" }, "geometry": { "type": "Point", "coordinates": [ 0.034414122562082, 51.535224193549581 ] } },
{ "type": "Feature", "properties": { "id": "940GZZLUUXB", "name": "Uxbridge", "nlc_id": 740, "nr_id": null, "category": "LU" }, "geometry": { "type": "Point", "coordinates": [ -0.478411277815934, 51.546434193586137 ] } },
{ "type": "Feature", "properties": { "id": "940GZZLUVIC", "name": "Victoria", "nlc_id": 741, "nr_id": null, "category": "LU" }, "geometry": { "type": "Point", "coordinates": [ -0.143229477605538, 51.496358493511522 ] } },
{ "type": "Feature", "properties": { "id": "940GZZLUWWL", "name": "Walthamstow Central", "nlc_id": 742, "nr_id": null, "category": "LU" }, "geometry": { "type": "Point", "coordinates": [ -0.020099988716279, 51.583899996806061 ] } },
{ "type": "Feature", "properties": { "id": "940GZZLUWSD", "name": "Wanstead", "nlc_id": 743, "nr_id": null, "category": "LU" }, "geometry": { "type": "Point", "coordinates": [ 0.028621022595679, 51.575665893599194 ] } },
{ "type": "Feature", "properties": { "id": "940GZZLUWRR", "name": "Warren Street", "nlc_id": 745, "nr_id": null, "category": "LU" }, "geometry": { "type": "Point", "coordinates": [ -0.138099498737989, 51.524653485625507 ] } },
{ "type": "Feature", "properties": { "id": "940GZZLUWKA", "name": "Warwick Avenue", "nlc_id": 746, "nr_id": null, "category": "LU" }, "geometry": { "type": "Point", "coordinates": [ -0.184009777611129, 51.523300393546286 ] } },
{ "type": "Feature", "properties": { "id": "940GZZLUWLO", "name": "Waterloo", "nlc_id": 747, "nr_id": null, "category": "LU" }, "geometry": { "type": "Point", "coordinates": [ -0.11435666467247, 51.503057087677725 ] } },
{ "type": "Feature", "properties": { "id": "940GZZDLSHS", "name": "Stratford High Street", "nlc_id": 749, "nr_id": null, "category": "Add DLR" }, "geometry": { "type": "Point", "coordinates": [ -0.000337877461098, 51.537698693554646 ] } },
{ "type": "Feature", "properties": { "id": "940GZZDLABR", "name": "Abbey Road", "nlc_id": 750, "nr_id": null, "category": "Add DLR" }, "geometry": { "type": "Point", "coordinates": [ 0.003530322536782, 51.532393593547958 ] } },
{ "type": "Feature", "properties": { "id": "940GZZLUWYC", "name": "Wembley Central", "nlc_id": 751, "nr_id": null, "category": "LU" }, "geometry": { "type": "Point", "coordinates": [ -0.295882577670114, 51.551395093585526 ] } },
{ "type": "Feature", "properties": { "id": "940GZZLUWYP", "name": "Wembley Park", "nlc_id": 752, "nr_id": null, "category": "LU" }, "geometry": { "type": "Point", "coordinates": [ -0.280039977646635, 51.56376829360012 ] } },
{ "type": "Feature", "properties": { "id": "940GZZLUWTA", "name": "West Acton", "nlc_id": 753, "nr_id": null, "category": "LU" }, "geometry": { "type": "Point", "coordinates": [ -0.280605077688973, 51.518196393544066 ] } },
{ "type": "Feature", "properties": { "id": "940GZZLUWSP", "name": "Westbourne Park", "nlc_id": 754, "nr_id": null, "category": "LU" }, "geometry": { "type": "Point", "coordinates": [ -0.201508477626486, 51.52094869354417 ] } },
{ "type": "Feature", "properties": { "id": "940GZZLUWBN", "name": "West Brompton", "nlc_id": 755, "nr_id": null, "category": "LU" }, "geometry": { "type": "Point", "coordinates": [ -0.195487726265769, 51.487029943258399 ] } },
{ "type": "Feature", "properties": { "id": "940GZZLUWFN", "name": "West Finchley", "nlc_id": 756, "nr_id": null, "category": "LU" }, "geometry": { "type": "Point", "coordinates": [ -0.188301277534767, 51.609488393652384 ] } },
{ "type": "Feature", "properties": { "id": "940GZZLUWHM", "name": "West Ham", "nlc_id": 757, "nr_id": null, "category": "LU" }, "geometry": { "type": "Point", "coordinates": [ 0.004400011266815, 51.5283399967715 ] } },
{ "type": "Feature", "properties": { "id": "940GZZLUWHP", "name": "West Hampstead", "nlc_id": 758, "nr_id": null, "category": "LU" }, "geometry": { "type": "Point", "coordinates": [ -0.190799977594458, 51.546856593575477 ] } },
{ "type": "Feature", "properties": { "id": "940GZZLUWHW", "name": "West Harrow", "nlc_id": 759, "nr_id": null, "category": "LU" }, "geometry": { "type": "Point", "coordinates": [ -0.353765177688961, 51.579390793622409 ] } },
{ "type": "Feature", "properties": { "id": "940GZZLUWKN", "name": "West Kensington", "nlc_id": 760, "nr_id": null, "category": "LU" }, "geometry": { "type": "Point", "coordinates": [ -0.205979831027833, 51.490696658538248 ] } },
{ "type": "Feature", "properties": { "id": "940GZZLUWSM", "name": "Westminster", "nlc_id": 761, "nr_id": null, "category": "LU" }, "geometry": { "type": "Point", "coordinates": [ -0.12595636151419, 51.50087752200691 ] } },
{ "type": "Feature", "properties": { "id": "940GZZLUWRP", "name": "West Ruislip", "nlc_id": 762, "nr_id": null, "category": "LU" }, "geometry": { "type": "Point", "coordinates": [ -0.43766177776299, 51.569631893613469 ] } },
{ "type": "Feature", "properties": { "id": "940GZZLUWPL", "name": "Whitechapel", "nlc_id": 763, "nr_id": null, "category": "LU" }, "geometry": { "type": "Point", "coordinates": [ -0.060999988761379, 51.519599996767951 ] } },
{ "type": "Feature", "properties": { "id": "940GZZLUWCY", "name": "White City", "nlc_id": 764, "nr_id": null, "category": "LU" }, "geometry": { "type": "Point", "coordinates": [ -0.224385777651962, 51.512071893534262 ] } },
{ "type": "Feature", "properties": { "id": "940GZZLUWIG", "name": "Willesden Green", "nlc_id": 765, "nr_id": null, "category": "LU" }, "geometry": { "type": "Point", "coordinates": [ -0.221854877615654, 51.549329393579889 ] } },
{ "type": "Feature", "properties": { "id": "940GZZLUWJN", "name": "Willesden Junction", "nlc_id": 766, "nr_id": null, "category": "LU" }, "geometry": { "type": "Point", "coordinates": [ -0.243179577647575, 51.532248693559801 ] } },
{ "type": "Feature", "properties": { "id": "940GZZLUWIM", "name": "Wimbledon", "nlc_id": 767, "nr_id": null, "category": "LU" }, "geometry": { "type": "Point", "coordinates": [ -0.206164191763558, 51.421635879817259 ] } },
{ "type": "Feature", "properties": { "id": "940GZZLUWIP", "name": "Wimbledon Park", "nlc_id": 768, "nr_id": null, "category": "LU" }, "geometry": { "type": "Point", "coordinates": [ -0.199631977705226, 51.434458893438503 ] } },
{ "type": "Feature", "properties": { "id": "940GZZLUWOF", "name": "Woodford", "nlc_id": 769, "nr_id": null, "category": "LU" }, "geometry": { "type": "Point", "coordinates": [ 0.033859522628483, 51.606654793636679 ] } },
{ "type": "Feature", "properties": { "id": "940GZZLUWOG", "name": "Wood Green", "nlc_id": 770, "nr_id": null, "category": "LU" }, "geometry": { "type": "Point", "coordinates": [ -0.109755277486742, 51.597418893633623 ] } },
{ "type": "Feature", "properties": { "id": "940GZZLUWOP", "name": "Woodside Park", "nlc_id": 771, "nr_id": null, "category": "LU" }, "geometry": { "type": "Point", "coordinates": [ -0.185619977525081, 51.617793293662501 ] } },
{ "type": "Feature", "properties": { "id": "940GZZLUERB", "name": "Edgware Road", "nlc_id": 774, "nr_id": null, "category": "LU" }, "geometry": { "type": "Point", "coordinates": [ -0.170339077603463, 51.520482793542257 ] } },
{ "type": "Feature", "properties": { "id": "940GZZLUSBM", "name": "Shepherd's Bush Market", "nlc_id": 775, "nr_id": null, "category": "LU" }, "geometry": { "type": "Point", "coordinates": [ -0.226383077659271, 51.505796493526645 ] } },
{ "type": "Feature", "properties": { "id": "940GZZLUPCO", "name": "Pimlico", "nlc_id": 776, "nr_id": null, "category": "LU" }, "geometry": { "type": "Point", "coordinates": [ -0.132954177604808, 51.488890693501986 ] } },
{ "type": "Feature", "properties": { "id": "940GZZLUVXL", "name": "Vauxhall", "nlc_id": 777, "nr_id": null, "category": "LU" }, "geometry": { "type": "Point", "coordinates": [ -0.123079577601099, 51.484971693496774 ] } },
{ "type": "Feature", "properties": { "id": "940GZZLUBXN", "name": "Brixton", "nlc_id": 778, "nr_id": null, "category": "LU" }, "geometry": { "type": "Point", "coordinates": [ -0.114871995940224, 51.462606252822617 ] } },
{ "type": "Feature", "properties": { "id": "940GZZLUHNX", "name": "Hatton Cross", "nlc_id": 779, "nr_id": null, "category": "LU" }, "geometry": { "type": "Point", "coordinates": [ -0.423116477845585, 51.466720593485832 ] } },
{ "type": "Feature", "properties": { "id": "940GZZLUHRC", "name": "Heathrow Terminals 2 & 3", "nlc_id": 780, "nr_id": null, "category": "LU" }, "geometry": { "type": "Point", "coordinates": [ -0.455001277865007, 51.472504793493982 ] } },
{ "type": "Feature", "properties": { "id": "940GZZLUHR4", "name": "Heathrow Terminal 4", "nlc_id": 781, "nr_id": null, "category": "LU" }, "geometry": { "type": "Point", "coordinates": [ -0.445434577870234, 51.458658993476611 ] } },
{ "type": "Feature", "properties": { "id": "940GZZLUHR5", "name": "Heathrow Terminal 5", "nlc_id": 783, "nr_id": null, "category": "LU" }, "geometry": { "type": "Point", "coordinates": [ -0.490104277892295, 51.472547693495152 ] } },
{ "type": "Feature", "properties": { "id": "940GZZLUSWK", "name": "Southwark", "nlc_id": 784, "nr_id": null, "category": "LU" }, "geometry": { "type": "Point", "coordinates": [ -0.105149077569972, 51.504080093519178 ] } },
{ "type": "Feature", "properties": { "id": "940GZZLUBMY", "name": "Bermondsey", "nlc_id": 787, "nr_id": null, "category": "LU" }, "geometry": { "type": "Point", "coordinates": [ -0.063738177545184, 51.497729693509399 ] } },
{ "type": "Feature", "properties": { "id": "940GZZLUCWR", "name": "Canada Water", "nlc_id": 788, "nr_id": null, "category": "LU" }, "geometry": { "type": "Point", "coordinates": [ -0.049299988767133, 51.497999996754508 ] } },
{ "type": "Feature", "properties": { "id": "940GZZLUNGW", "name": "North Greenwich", "nlc_id": 789, "nr_id": null, "category": "LU" }, "geometry": { "type": "Point", "coordinates": [ 0.003884822506809, 51.500093593508694 ] } },
{ "type": "Feature", "properties": { "id": "940GZZDLALL", "name": "All Saints", "nlc_id": 850, "nr_id": null, "category": "Add DLR" }, "geometry": { "type": "Point", "coordinates": [ -0.013071277495695, 51.510715993522531 ] } },
{ "type": "Feature", "properties": { "id": "940GZZDLBOW", "name": "Bow Church", "nlc_id": 851, "nr_id": null, "category": "Add DLR" }, "geometry": { "type": "Point", "coordinates": [ -0.020910777485559, 51.527729293543658 ] } },
{ "type": "Feature", "properties": { "id": "940GZZLUCYF", "name": "Canary Wharf", "nlc_id": 852, "nr_id": null, "category": "LU" }, "geometry": { "type": "Point", "coordinates": [ -0.018611966282609, 51.503540623775081 ] } },
{ "type": "Feature", "properties": { "id": "940GZZDLLDP", "name": "Langdon Park", "nlc_id": 853, "nr_id": null, "category": "Add DLR" }, "geometry": { "type": "Point", "coordinates": [ -0.014112877492322, 51.51513999352796 ] } },
{ "type": "Feature", "properties": { "id": "940GZZDLCLA", "name": "Crossharbour", "nlc_id": 854, "nr_id": null, "category": "Add DLR" }, "geometry": { "type": "Point", "coordinates": [ -0.014468077510643, 51.495836393504533 ] } },
{ "type": "Feature", "properties": { "id": "940GZZDLHEQ", "name": "Heron Quays", "nlc_id": 855, "nr_id": null, "category": "Add DLR" }, "geometry": { "type": "Point", "coordinates": [ -0.021437177508818, 51.503261593513919 ] } },
{ "type": "Feature", "properties": { "id": "940GZZDLISL", "name": "Island Gardens", "nlc_id": 856, "nr_id": null, "category": "Add DLR" }, "geometry": { "type": "Point", "coordinates": [ -0.010293777514995, 51.487916093494697 ] } },
{ "type": "Feature", "properties": { "id": "940GZZDLMUD", "name": "Mudchute", "nlc_id": 857, "nr_id": null, "category": "Add DLR" }, "geometry": { "type": "Point", "coordinates": [ -0.014953577514876, 51.491697693499525 ] } },
{ "type": "Feature", "properties": { "id": "940GZZDLPOP", "name": "Poplar", "nlc_id": 858, "nr_id": null, "category": "Add DLR" }, "geometry": { "type": "Point", "coordinates": [ -0.017477977501623, 51.507839693519273 ] } },
{ "type": "Feature", "properties": { "id": "940GZZDLPUD", "name": "Pudding Mill Lane", "nlc_id": 859, "nr_id": null, "category": "Add DLR" }, "geometry": { "type": "Point", "coordinates": [ -0.013515236041447, 51.533844321841592 ] } },
{ "type": "Feature", "properties": { "id": "940GZZDLSHA", "name": "Shadwell", "nlc_id": 860, "nr_id": null, "category": "Add DLR" }, "geometry": { "type": "Point", "coordinates": [ -0.056199988763262, 51.511749996763058 ] } },
{ "type": "Feature", "properties": { "id": "940GZZDLSOQ", "name": "South Quay", "nlc_id": 861, "nr_id": null, "category": "Add DLR" }, "geometry": { "type": "Point", "coordinates": [ -0.016193377508006, 51.500010193509716 ] } },
{ "type": "Feature", "properties": { "id": "940GZZDLLIM", "name": "Limehouse", "nlc_id": 862, "nr_id": null, "category": "Add DLR" }, "geometry": { "type": "Point", "coordinates": [ -0.03968717751375, 51.51237219352597 ] } },
{ "type": "Feature", "properties": { "id": "940GZZDLTWG", "name": "Tower Gateway", "nlc_id": 864, "nr_id": null, "category": "Add DLR" }, "geometry": { "type": "Point", "coordinates": [ -0.074413677541061, 51.510623293525619 ] } },
{ "type": "Feature", "properties": { "id": "940GZZDLWFE", "name": "Westferry", "nlc_id": 865, "nr_id": null, "category": "Add DLR" }, "geometry": { "type": "Point", "coordinates": [ -0.026735677506931, 51.50945149352173 ] } },
{ "type": "Feature", "properties": { "id": "940GZZDLWIQ", "name": "West India Quay", "nlc_id": 866, "nr_id": null, "category": "Add DLR" }, "geometry": { "type": "Point", "coordinates": [ -0.020404077504653, 51.506904093518294 ] } },
{ "type": "Feature", "properties": { "id": "940GZZDLDEV", "name": "Devons Road", "nlc_id": 867, "nr_id": null, "category": "Add DLR" }, "geometry": { "type": "Point", "coordinates": [ -0.017501077487959, 51.522474693537049 ] } },
{ "type": "Feature", "properties": { "id": "940GZZDLCUT", "name": "Cutty Sark", "nlc_id": 879, "nr_id": null, "category": "Add DLR" }, "geometry": { "type": "Point", "coordinates": [ -0.010720777521093, 51.481741393487219 ] } },
{ "type": "Feature", "properties": { "id": "940GZZDLBLA", "name": "Blackwall", "nlc_id": 882, "nr_id": null, "category": "Add DLR" }, "geometry": { "type": "Point", "coordinates": [ -0.007226177493992, 51.507944993518855 ] } },
{ "type": "Feature", "properties": { "id": "940GZZDLEIN", "name": "East India", "nlc_id": 883, "nr_id": null, "category": "Add DLR" }, "geometry": { "type": "Point", "coordinates": [ -0.002258977488996, 51.509385593520292 ] } },
{ "type": "Feature", "properties": { "id": "940GZZLUCGT", "name": "Canning Town", "nlc_id": 884, "nr_id": null, "category": "LU" }, "geometry": { "type": "Point", "coordinates": [ 0.008170722523011, 51.514039693525369 ] } },
{ "type": "Feature", "properties": { "id": "940GZZDLRVC", "name": "Royal Victoria", "nlc_id": 886, "nr_id": null, "category": "Add DLR" }, "geometry": { "type": "Point", "coordinates": [ 0.017929859958287, 51.509168371039387 ] } },
{ "type": "Feature", "properties": { "id": "940GZZDLCUS", "name": "Custom House", "nlc_id": 887, "nr_id": null, "category": "Add DLR" }, "geometry": { "type": "Point", "coordinates": [ 0.026370011266137, 51.509699996759558 ] } },
{ "type": "Feature", "properties": { "id": "940GZZDLPRE", "name": "Prince Regent", "nlc_id": 888, "nr_id": null, "category": "Add DLR" }, "geometry": { "type": "Point", "coordinates": [ 0.033622622537374, 51.509486593518382 ] } },
{ "type": "Feature", "properties": { "id": "940GZZDLSTL", "name": "Star Lane", "nlc_id": 889, "nr_id": null, "category": "Add DLR" }, "geometry": { "type": "Point", "coordinates": [ 0.004174922526184, 51.520559393533503 ] } },
{ "type": "Feature", "properties": { "id": "940GZZDLRAL", "name": "Royal Albert", "nlc_id": 890, "nr_id": null, "category": "Add DLR" }, "geometry": { "type": "Point", "coordinates": [ 0.045657522545088, 51.50834389351629 ] } },
{ "type": "Feature", "properties": { "id": "940GZZDLBPK", "name": "Beckton Park", "nlc_id": 891, "nr_id": null, "category": "Add DLR" }, "geometry": { "type": "Point", "coordinates": [ 0.05497572255224, 51.508725793516163 ] } },
{ "type": "Feature", "properties": { "id": "940GZZDLCYP", "name": "Cyprus", "nlc_id": 893, "nr_id": null, "category": "Add DLR" }, "geometry": { "type": "Point", "coordinates": [ 0.063971222558513, 51.508432393515285 ] } },
{ "type": "Feature", "properties": { "id": "940GZZDLGAL", "name": "Gallions Reach", "nlc_id": 894, "nr_id": null, "category": "Add DLR" }, "geometry": { "type": "Point", "coordinates": [ 0.071771222564684, 51.508964293515426 ] } },
{ "type": "Feature", "properties": { "id": "940GZZDLBEC", "name": "Beckton", "nlc_id": 895, "nr_id": null, "category": "Add DLR" }, "geometry": { "type": "Point", "coordinates": [ 0.061052722561881, 51.514278493522539 ] } },
{ "type": "Feature", "properties": { "id": "940GZZDLDEP", "name": "Deptford Bridge", "nlc_id": 897, "nr_id": null, "category": "Add DLR" }, "geometry": { "type": "Point", "coordinates": [ -0.022393977536807, 51.474109993478585 ] } },
{ "type": "Feature", "properties": { "id": "940GZZDLELV", "name": "Elverson Road", "nlc_id": 898, "nr_id": null, "category": "Add DLR" }, "geometry": { "type": "Point", "coordinates": [ -0.01678637753739, 51.469095693472205 ] } },
{ "type": "Feature", "properties": { "id": "940GZZDLGRE", "name": "Greenwich", "nlc_id": 928, "nr_id": null, "category": "Add DLR" }, "geometry": { "type": "Point", "coordinates": [ -0.015487277528055, 51.478042193482992 ] } },
{ "type": "Feature", "properties": { "id": "940GZZDLLEW", "name": "Lewisham", "nlc_id": 940, "nr_id": null, "category": "Add DLR" }, "geometry": { "type": "Point", "coordinates": [ -0.012909877538655, 51.464714093466696 ] } },
{ "type": "Feature", "properties": { "id": "910GHAGGERS", "name": "Haggerston", "nlc_id": 1022, "nr_id": null, "category": "Add OG" }, "geometry": { "type": "Point", "coordinates": [ -0.075537777515527, 51.538929293560258 ] } },
{ "type": "Feature", "properties": { "id": "910GHOXTON", "name": "Hoxton", "nlc_id": 1023, "nr_id": null, "category": "Add OG" }, "geometry": { "type": "Point", "coordinates": [ -0.075625077522539, 51.531469993551127 ] } },
{ "type": "Feature", "properties": { "id": "910GSHRDHST", "name": "Shoreditch High Street", "nlc_id": 1024, "nr_id": null, "category": "Add OG" }, "geometry": { "type": "Point", "coordinates": [ -0.076071077530486, 51.523288893541192 ] } },
{ "type": "Feature", "properties": { "id": "910GRTHERHI", "name": "Rotherhithe", "nlc_id": 1039, "nr_id": null, "category": "Add OG" }, "geometry": { "type": "Point", "coordinates": [ -0.05212157753352, 51.501029093512834 ] } },
{ "type": "Feature", "properties": { "id": "910GSURREYQ", "name": "Surrey Quays", "nlc_id": 1083, "nr_id": null, "category": "Add OG" }, "geometry": { "type": "Point", "coordinates": [ -0.047622477537435, 51.493282993503179 ] } },
{ "type": "Feature", "properties": { "id": "910GWAPPING", "name": "Wapping", "nlc_id": 1085, "nr_id": null, "category": "Add OG" }, "geometry": { "type": "Point", "coordinates": [ -0.055899677533238, 51.504322093517032 ] } },
{ "type": "Feature", "properties": { "id": "910GHTCHEND", "name": "Hatch End", "nlc_id": 1398, "nr_id": null, "category": "Add OG" }, "geometry": { "type": "Point", "coordinates": [ -0.368613277673002, 51.609463993660228 ] } },
{ "type": "Feature", "properties": { "id": "910GACTNCTL", "name": "Acton Central", "nlc_id": 1404, "nr_id": null, "category": "Add OG" }, "geometry": { "type": "Point", "coordinates": [ -0.262832577684196, 51.508709093531714 ] } },
{ "type": "Feature", "properties": { "id": "910GGOSPLOK", "name": "Gospel Oak", "nlc_id": 1409, "nr_id": null, "category": "Add OG" }, "geometry": { "type": "Point", "coordinates": [ -0.152152877557205, 51.55567739358451 ] } },
{ "type": "Feature", "properties": { "id": "910GHMPSTDH", "name": "Hampstead Heath", "nlc_id": 1413, "nr_id": null, "category": "Add OG" }, "geometry": { "type": "Point", "coordinates": [ -0.165335177567515, 51.555245993584599 ] } },
{ "type": "Feature", "properties": { "id": "910GKLBRNHR", "name": "Kilburn High Road", "nlc_id": 1415, "nr_id": null, "category": "Add OG" }, "geometry": { "type": "Point", "coordinates": [ -0.191495077603477, 51.537665793564223 ] } },
{ "type": "Feature", "properties": { "id": "910GDALSKLD", "name": "Dalston Kingsland", "nlc_id": 1429, "nr_id": null, "category": "Add OG" }, "geometry": { "type": "Point", "coordinates": [ -0.075823477507139, 51.548172793571531 ] } },
{ "type": "Feature", "properties": { "id": "910GHEDSTNL", "name": "Headstone Lane", "nlc_id": 1434, "nr_id": null, "category": "Add OG" }, "geometry": { "type": "Point", "coordinates": [ -0.356631777670148, 51.602417493651025 ] } },
{ "type": "Feature", "properties": { "id": "910GBRBY", "name": "Brondesbury", "nlc_id": 1437, "nr_id": null, "category": "Add OG" }, "geometry": { "type": "Point", "coordinates": [ -0.202323477604759, 51.545122793573874 ] } },
{ "type": "Feature", "properties": { "id": "910GBRBYPK", "name": "Brondesbury Park", "nlc_id": 1438, "nr_id": null, "category": "Add OG" }, "geometry": { "type": "Point", "coordinates": [ -0.210147977614761, 51.540696293568772 ] } },
{ "type": "Feature", "properties": { "id": "910GCLDNNRB", "name": "Caledonian Road & Barnsbury", "nlc_id": 1439, "nr_id": null, "category": "Add OG" }, "geometry": { "type": "Point", "coordinates": [ -0.114988177540562, 51.543607093567921 ] } },
{ "type": "Feature", "properties": { "id": "910GCMDNRD", "name": "Camden Road", "nlc_id": 1440, "nr_id": null, "category": "Add OG" }, "geometry": { "type": "Point", "coordinates": [ -0.139464277560407, 51.541949193567092 ] } },
{ "type": "Feature", "properties": { "id": "910GCNNB", "name": "Canonbury", "nlc_id": 1441, "nr_id": null, "category": "Add OG" }, "geometry": { "type": "Point", "coordinates": [ -0.092683277519211, 51.54867999357301 ] } },
{ "type": "Feature", "properties": { "id": "910GDALS", "name": "Dalston Junction", "nlc_id": 1443, "nr_id": null, "category": "Add OG" }, "geometry": { "type": "Point", "coordinates": [ -0.074907777508354, 51.546135393568996 ] } },
{ "type": "Feature", "properties": { "id": "910GFNCHLYR", "name": "Finchley Road & Frognal", "nlc_id": 1445, "nr_id": null, "category": "Add OG" }, "geometry": { "type": "Point", "coordinates": [ -0.183953677586398, 51.549989993579032 ] } },
{ "type": "Feature", "properties": { "id": "910GKENR", "name": "Kensal Rise", "nlc_id": 1448, "nr_id": null, "category": "Add OG" }, "geometry": { "type": "Point", "coordinates": [ -0.220225577628189, 51.534408093561488 ] } },
{ "type": "Feature", "properties": { "id": "910GKNTSHTW", "name": "Kentish Town West", "nlc_id": 1449, "nr_id": null, "category": "Add OG" }, "geometry": { "type": "Point", "coordinates": [ -0.146750377561118, 51.547075493573729 ] } },
{ "type": "Feature", "properties": { "id": "910GSHMPSTD", "name": "South Hampstead", "nlc_id": 1451, "nr_id": null, "category": "Add OG" }, "geometry": { "type": "Point", "coordinates": [ -0.178824477590531, 51.541341493568162 ] } },
{ "type": "Feature", "properties": { "id": "910GSACTON", "name": "South Acton", "nlc_id": 1452, "nr_id": null, "category": "Add OG" }, "geometry": { "type": "Point", "coordinates": [ -0.270096577698136, 51.499573093520794 ] } },
{ "type": "Feature", "properties": { "id": "NLT", "name": "Northolt Park", "nlc_id": 1478, "nr_id": null, "category": "Other NR" }, "geometry": { "type": "Point", "coordinates": [ -0.359449988856686, 51.55748999679777 ] } },
{ "type": "Feature", "properties": { "id": "SUD", "name": "Sudbury & Harrow Road", "nlc_id": 1483, "nr_id": null, "category": "Other NR" }, "geometry": { "type": "Point", "coordinates": [ -0.315449988841201, 51.554339996794965 ] } },
{ "type": "Feature", "properties": { "id": "SDH", "name": "Sudbury Hill Harrow", "nlc_id": 1484, "nr_id": null, "category": "Other NR" }, "geometry": { "type": "Point", "coordinates": [ -0.33578998884715, 51.558409996797877 ] } },
{ "type": "Feature", "properties": { "id": "WCX", "name": "Wembley Stadium", "nlc_id": 1509, "nr_id": null, "category": "Other NR" }, "geometry": { "type": "Point", "coordinates": [ -0.285589988829759, 51.554359996794382 ] } },
{ "type": "Feature", "properties": { "id": "CRI", "name": "Cricklewood", "nlc_id": 1519, "nr_id": null, "category": "Other NR" }, "geometry": { "type": "Point", "coordinates": [ -0.212659988800161, 51.558399996795323 ] } },
{ "type": "Feature", "properties": { "id": "HEN", "name": "Hendon", "nlc_id": 1522, "nr_id": null, "category": "Other NR" }, "geometry": { "type": "Point", "coordinates": [ -0.238659988800074, 51.580009996809203 ] } },
{ "type": "Feature", "properties": { "id": "910GUPRHLWY", "name": "Upper Holloway", "nlc_id": 1524, "nr_id": null, "category": "Add OG" }, "geometry": { "type": "Point", "coordinates": [ -0.129485377532836, 51.563625393593149 ] } },
{ "type": "Feature", "properties": { "id": "MIL", "name": "Mill Hill Broadway", "nlc_id": 1527, "nr_id": null, "category": "Other NR" }, "geometry": { "type": "Point", "coordinates": [ -0.24921998878892, 51.613039996829798 ] } },
{ "type": "Feature", "properties": { "id": "910GACTONML", "name": "Acton Main Line", "nlc_id": 3000, "nr_id": null, "category": "Other NR" }, "geometry": { "type": "Point", "coordinates": [ -0.267155177679738, 51.517107693542165 ] } },
{ "type": "Feature", "properties": { "id": "CBP", "name": "Castle Bar Park", "nlc_id": 3098, "nr_id": null, "category": "Other NR" }, "geometry": { "type": "Point", "coordinates": [ -0.331529988861798, 51.522879996775892 ] } },
{ "type": "Feature", "properties": { "id": "DRG", "name": "Drayton Green", "nlc_id": 3099, "nr_id": null, "category": "Other NR" }, "geometry": { "type": "Point", "coordinates": [ -0.330179988864181, 51.516559996771981 ] } },
{ "type": "Feature", "properties": { "id": "SGN", "name": "South Greenford", "nlc_id": 3138, "nr_id": null, "category": "Other NR" }, "geometry": { "type": "Point", "coordinates": [ -0.336689988858816, 51.533699996782659 ] } },
{ "type": "Feature", "properties": { "id": "910GWDRYTON", "name": "West Drayton", "nlc_id": 3174, "nr_id": null, "category": "Other NR" }, "geometry": { "type": "Point", "coordinates": [ -0.471897277844148, 51.509812893540591 ] } },
{ "type": "Feature", "properties": { "id": "910GHAYESAH", "name": "Hayes & Harlington", "nlc_id": 3186, "nr_id": "HAY", "category": "Other NR" }, "geometry": { "type": "Point", "coordinates": [ -0.419623677809738, 51.502969893530384 ] } },
{ "type": "Feature", "properties": { "id": "910GSTHALL", "name": "Southall", "nlc_id": 3187, "nr_id": "STL", "category": "Other NR" }, "geometry": { "type": "Point", "coordinates": [ -0.377434077774191, 51.506190093532886 ] } },
{ "type": "Feature", "properties": { "id": "910GWEALING", "name": "West Ealing", "nlc_id": 3188, "nr_id": "WEA", "category": "Other NR" }, "geometry": { "type": "Point", "coordinates": [ -0.320472577723722, 51.513513093539835 ] } },
{ "type": "Feature", "properties": { "id": "910GHANWELL", "name": "Hanwell", "nlc_id": 3191, "nr_id": "HAN", "category": "Other NR" }, "geometry": { "type": "Point", "coordinates": [ -0.338595777739175, 51.511808593538426 ] } },
{ "type": "Feature", "properties": { "id": "CFB", "name": "Catford Bridge", "nlc_id": 5047, "nr_id": null, "category": "Other NR" }, "geometry": { "type": "Point", "coordinates": [ -0.024769988783063, 51.444679996721526 ] } },
{ "type": "Feature", "properties": { "id": "CLK", "name": "Clock House", "nlc_id": 5048, "nr_id": null, "category": "Other NR" }, "geometry": { "type": "Point", "coordinates": [ -0.040639988805833, 51.408529996700054 ] } },
{ "type": "Feature", "properties": { "id": "HYS", "name": "Hayes", "nlc_id": 5050, "nr_id": null, "category": "Other NR" }, "geometry": { "type": "Point", "coordinates": [ 0.01058001119767, 51.376279996679365 ] } },
{ "type": "Feature", "properties": { "id": "LSY", "name": "Lower Sydenham", "nlc_id": 5053, "nr_id": null, "category": "Other NR" }, "geometry": { "type": "Point", "coordinates": [ -0.033319988795533, 51.424769996709699 ] } },
{ "type": "Feature", "properties": { "id": "WWI", "name": "West Wickham", "nlc_id": 5054, "nr_id": null, "category": "Other NR" }, "geometry": { "type": "Point", "coordinates": [ -0.014409988809078, 51.381239996682979 ] } },
{ "type": "Feature", "properties": { "id": "EDN", "name": "Eden Park", "nlc_id": 5056, "nr_id": null, "category": "Other NR" }, "geometry": { "type": "Point", "coordinates": [ -0.026329988809289, 51.390029996688568 ] } },
{ "type": "Feature", "properties": { "id": "LAD", "name": "Ladywell", "nlc_id": 5057, "nr_id": null, "category": "Other NR" }, "geometry": { "type": "Point", "coordinates": [ -0.019019988775562, 51.456189996728341 ] } },
{ "type": "Feature", "properties": { "id": "NBC", "name": "New Beckenham", "nlc_id": 5058, "nr_id": null, "category": "Other NR" }, "geometry": { "type": "Point", "coordinates": [ -0.035249988800021, 51.416709996704867 ] } },
{ "type": "Feature", "properties": { "id": "SAJ", "name": "St. John's", "nlc_id": 5059, "nr_id": null, "category": "Other NR" }, "geometry": { "type": "Point", "coordinates": [ -0.022699988770754, 51.469329996736406 ] } },
{ "type": "Feature", "properties": { "id": "BGM", "name": "Bellingham", "nlc_id": 5062, "nr_id": null, "category": "Other NR" }, "geometry": { "type": "Point", "coordinates": [ -0.019309988786609, 51.432859996714235 ] } },
{ "type": "Feature", "properties": { "id": "BKL", "name": "Bickley", "nlc_id": 5063, "nr_id": null, "category": "Other NR" }, "geometry": { "type": "Point", "coordinates": [ 0.045260011221443, 51.400049996692744 ] } },
{ "type": "Feature", "properties": { "id": "BMS", "name": "Bromley South", "nlc_id": 5064, "nr_id": null, "category": "Other NR" }, "geometry": { "type": "Point", "coordinates": [ 0.017370011211272, 51.399919996693413 ] } },
{ "type": "Feature", "properties": { "id": "HNH", "name": "Herne Hill", "nlc_id": 5066, "nr_id": null, "category": "Other NR" }, "geometry": { "type": "Point", "coordinates": [ -0.102269988807603, 51.453249996728594 ] } },
{ "type": "Feature", "properties": { "id": "NHD", "name": "Nunhead", "nlc_id": 5068, "nr_id": null, "category": "Other NR" }, "geometry": { "type": "Point", "coordinates": [ -0.052249988782815, 51.466769996735607 ] } },
{ "type": "Feature", "properties": { "id": "MTC", "name": "Mitcham Eastfields", "nlc_id": 5069, "nr_id": null, "category": "Other NR" }, "geometry": { "type": "Point", "coordinates": [ -0.154629988848281, 51.407679996702051 ] } },
{ "type": "Feature", "properties": { "id": "PNE", "name": "Penge East", "nlc_id": 5072, "nr_id": null, "category": "Other NR" }, "geometry": { "type": "Point", "coordinates": [ -0.054199988805762, 51.419279996706898 ] } },
{ "type": "Feature", "properties": { "id": "SMY", "name": "St. Mary Cray", "nlc_id": 5073, "nr_id": null, "category": "Other NR" }, "geometry": { "type": "Point", "coordinates": [ 0.106410011240939, 51.394689996687745 ] } },
{ "type": "Feature", "properties": { "id": "BEC", "name": "Beckenham Hill", "nlc_id": 5076, "nr_id": null, "category": "Other NR" }, "geometry": { "type": "Point", "coordinates": [ -0.015929988789284, 51.424529996709119 ] } },
{ "type": "Feature", "properties": { "id": "CTF", "name": "Catford", "nlc_id": 5077, "nr_id": null, "category": "Other NR" }, "geometry": { "type": "Point", "coordinates": [ -0.026299988783779, 51.44434999672135 ] } },
{ "type": "Feature", "properties": { "id": "CFT", "name": "Crofton Park", "nlc_id": 5078, "nr_id": null, "category": "Other NR" }, "geometry": { "type": "Point", "coordinates": [ -0.036479988782463, 51.455129996728161 ] } },
{ "type": "Feature", "properties": { "id": "KTH", "name": "Kent House", "nlc_id": 5080, "nr_id": null, "category": "Other NR" }, "geometry": { "type": "Point", "coordinates": [ -0.045229988805809, 51.412159996702378 ] } },
{ "type": "Feature", "properties": { "id": "LGJ", "name": "Loughborough Junction", "nlc_id": 5082, "nr_id": null, "category": "Other NR" }, "geometry": { "type": "Point", "coordinates": [ -0.102159988801504, 51.466239996736476 ] } },
{ "type": "Feature", "properties": { "id": "RVB", "name": "Ravensbourne", "nlc_id": 5083, "nr_id": null, "category": "Other NR" }, "geometry": { "type": "Point", "coordinates": [ -0.007539988791106, 51.414129996702627 ] } },
{ "type": "Feature", "properties": { "id": "SRT", "name": "Shortlands", "nlc_id": 5084, "nr_id": null, "category": "Other NR" }, "geometry": { "type": "Point", "coordinates": [ 0.001810011208356, 51.405739996697335 ] } },
{ "type": "Feature", "properties": { "id": "SYH", "name": "Sydenham Hill", "nlc_id": 5085, "nr_id": null, "category": "Other NR" }, "geometry": { "type": "Point", "coordinates": [ -0.080319988809108, 51.4326599967156 ] } },
{ "type": "Feature", "properties": { "id": "WDU", "name": "West Dulwich", "nlc_id": 5086, "nr_id": null, "category": "Other NR" }, "geometry": { "type": "Point", "coordinates": [ -0.091349988809442, 51.44065999672069 ] } },
{ "type": "Feature", "properties": { "id": "BNH", "name": "Barnehurst", "nlc_id": 5089, "nr_id": null, "category": "Other NR" }, "geometry": { "type": "Point", "coordinates": [ 0.159670011293268, 51.464899996728221 ] } },
{ "type": "Feature", "properties": { "id": "BVD", "name": "Belvedere", "nlc_id": 5092, "nr_id": null, "category": "Other NR" }, "geometry": { "type": "Point", "coordinates": [ 0.152310011303473, 51.492059996744821 ] } },
{ "type": "Feature", "properties": { "id": "BXY", "name": "Bexley", "nlc_id": 5093, "nr_id": null, "category": "Other NR" }, "geometry": { "type": "Point", "coordinates": [ 0.147930011277349, 51.440159996713732 ] } },
{ "type": "Feature", "properties": { "id": "BXH", "name": "Bexleyheath", "nlc_id": 5094, "nr_id": null, "category": "Other NR" }, "geometry": { "type": "Point", "coordinates": [ 0.133760011283284, 51.463439996728212 ] } },
{ "type": "Feature", "properties": { "id": "BKH", "name": "Blackheath", "nlc_id": 5095, "nr_id": null, "category": "Other NR" }, "geometry": { "type": "Point", "coordinates": [ 0.008890011239128, 51.465739996733362 ] } },
{ "type": "Feature", "properties": { "id": "BMN", "name": "Bromley North", "nlc_id": 5096, "nr_id": null, "category": "Other NR" }, "geometry": { "type": "Point", "coordinates": [ 0.017010011215074, 51.408269996698465 ] } },
{ "type": "Feature", "properties": { "id": "CLD", "name": "Chelsfield", "nlc_id": 5098, "nr_id": null, "category": "Other NR" }, "geometry": { "type": "Point", "coordinates": [ 0.109090011223657, 51.356199996664643 ] } },
{ "type": "Feature", "properties": { "id": "CIT", "name": "Chislehurst", "nlc_id": 5099, "nr_id": null, "category": "Other NR" }, "geometry": { "type": "Point", "coordinates": [ 0.057440011228419, 51.405499996695696 ] } },
{ "type": "Feature", "properties": { "id": "CRY", "name": "Crayford", "nlc_id": 5100, "nr_id": null, "category": "Other NR" }, "geometry": { "type": "Point", "coordinates": [ 0.178960011292257, 51.448219996717519 ] } },
{ "type": "Feature", "properties": { "id": "ELW", "name": "Eltham", "nlc_id": 5103, "nr_id": null, "category": "Other NR" }, "geometry": { "type": "Point", "coordinates": [ 0.052500011250236, 51.455589996726012 ] } },
{ "type": "Feature", "properties": { "id": "ERH", "name": "Erith", "nlc_id": 5104, "nr_id": null, "category": "Other NR" }, "geometry": { "type": "Point", "coordinates": [ 0.175080011306693, 51.481609996737717 ] } },
{ "type": "Feature", "properties": { "id": "HGR", "name": "Hither Green", "nlc_id": 5107, "nr_id": null, "category": "Other NR" }, "geometry": { "type": "Point", "coordinates": [ -0.000919988770916, 51.451969996725317 ] } },
{ "type": "Feature", "properties": { "id": "KDB", "name": "Kidbrooke", "nlc_id": 5108, "nr_id": null, "category": "Other NR" }, "geometry": { "type": "Point", "coordinates": [ 0.027520011244196, 51.46205999673063 ] } },
{ "type": "Feature", "properties": { "id": "KCK", "name": "Knockholt", "nlc_id": 5109, "nr_id": null, "category": "Other NR" }, "geometry": { "type": "Point", "coordinates": [ 0.130870011226459, 51.345729996657745 ] } },
{ "type": "Feature", "properties": { "id": "LEE", "name": "Lee", "nlc_id": 5110, "nr_id": null, "category": "Other NR" }, "geometry": { "type": "Point", "coordinates": [ 0.013510011233284, 51.44969999672356 ] } },
{ "type": "Feature", "properties": { "id": "MTG", "name": "Mottingham", "nlc_id": 5118, "nr_id": null, "category": "Other NR" }, "geometry": { "type": "Point", "coordinates": [ 0.050080011242094, 51.440159996716751 ] } },
{ "type": "Feature", "properties": { "id": "NEH", "name": "New Eltham", "nlc_id": 5119, "nr_id": null, "category": "Other NR" }, "geometry": { "type": "Point", "coordinates": [ 0.070560011248493, 51.437999996714879 ] } },
{ "type": "Feature", "properties": { "id": "CTK", "name": "City Thameslink", "nlc_id": 5121, "nr_id": null, "category": "Other NR" }, "geometry": { "type": "Point", "coordinates": [ -0.103569988779839, 51.513879996765539 ] } },
{ "type": "Feature", "properties": { "id": "ORP", "name": "Orpington", "nlc_id": 5122, "nr_id": null, "category": "Other NR" }, "geometry": { "type": "Point", "coordinates": [ 0.089110011224576, 51.373239996675416 ] } },
{ "type": "Feature", "properties": { "id": "PET", "name": "Petts Wood", "nlc_id": 5123, "nr_id": null, "category": "Other NR" }, "geometry": { "type": "Point", "coordinates": [ 0.074500011226571, 51.388559996685025 ] } },
{ "type": "Feature", "properties": { "id": "SID", "name": "Sidcup", "nlc_id": 5125, "nr_id": null, "category": "Other NR" }, "geometry": { "type": "Point", "coordinates": [ 0.103820011258514, 51.433809996711346 ] } },
{ "type": "Feature", "properties": { "id": "WLI", "name": "Welling", "nlc_id": 5128, "nr_id": null, "category": "Other NR" }, "geometry": { "type": "Point", "coordinates": [ 0.101710011272358, 51.464739996730053 ] } },
{ "type": "Feature", "properties": { "id": "910GABWD", "name": "Abbey Wood", "nlc_id": 5131, "nr_id": null, "category": "Other NR" }, "geometry": { "type": "Point", "coordinates": [ 0.120405447531401, 51.491093375997259 ] } },
{ "type": "Feature", "properties": { "id": "AYP", "name": "Albany Park", "nlc_id": 5132, "nr_id": null, "category": "Other NR" }, "geometry": { "type": "Point", "coordinates": [ 0.125760011267151, 51.435399996711595 ] } },
{ "type": "Feature", "properties": { "id": "ESD", "name": "Elmstead Woods", "nlc_id": 5135, "nr_id": null, "category": "Other NR" }, "geometry": { "type": "Point", "coordinates": [ 0.044300011229117, 51.417059996703003 ] } },
{ "type": "Feature", "properties": { "id": "FCN", "name": "Falconwood", "nlc_id": 5137, "nr_id": null, "category": "Other NR" }, "geometry": { "type": "Point", "coordinates": [ 0.079330011261612, 51.459099996727339 ] } },
{ "type": "Feature", "properties": { "id": "GRP", "name": "Grove Park", "nlc_id": 5139, "nr_id": null, "category": "Other NR" }, "geometry": { "type": "Point", "coordinates": [ 0.021750011227405, 51.430809996711929 ] } },
{ "type": "Feature", "properties": { "id": "CTN", "name": "Charlton", "nlc_id": 5144, "nr_id": null, "category": "Other NR" }, "geometry": { "type": "Point", "coordinates": [ 0.031280011257168, 51.486759996745469 ] } },
{ "type": "Feature", "properties": { "id": "DEP", "name": "Deptford", "nlc_id": 5145, "nr_id": null, "category": "Other NR" }, "geometry": { "type": "Point", "coordinates": [ -0.026249988767628, 51.478789996742222 ] } },
{ "type": "Feature", "properties": { "id": "MZH", "name": "Maze Hill", "nlc_id": 5149, "nr_id": null, "category": "Other NR" }, "geometry": { "type": "Point", "coordinates": [ 0.002940011244848, 51.482569996743756 ] } },
{ "type": "Feature", "properties": { "id": "910GNWCRELL", "name": "New Cross", "nlc_id": 5150, "nr_id": "NWX", "category": "Add OG" }, "geometry": { "type": "Point", "coordinates": [ -0.032341177541753, 51.476631093482162 ] } },
{ "type": "Feature", "properties": { "id": "WWD", "name": "Woolwich Dockyard", "nlc_id": 5153, "nr_id": null, "category": "Other NR" }, "geometry": { "type": "Point", "coordinates": [ 0.054670011267713, 51.491069996747413 ] } },
{ "type": "Feature", "properties": { "id": "SGR", "name": "Slade Green", "nlc_id": 5154, "nr_id": null, "category": "Other NR" }, "geometry": { "type": "Point", "coordinates": [ 0.190520011305633, 51.467729996728821 ] } },
{ "type": "Feature", "properties": { "id": "SUP", "name": "Sundridge Park", "nlc_id": 5155, "nr_id": null, "category": "Other NR" }, "geometry": { "type": "Point", "coordinates": [ 0.02147001121926, 51.413719996701623 ] } },
{ "type": "Feature", "properties": { "id": "PLU", "name": "Plumstead", "nlc_id": 5208, "nr_id": null, "category": "Other NR" }, "geometry": { "type": "Point", "coordinates": [ 0.084280011277838, 51.489739996745691 ] } },
{ "type": "Feature", "properties": { "id": "HYR", "name": "Haydons Road", "nlc_id": 5289, "nr_id": null, "category": "Other NR" }, "geometry": { "type": "Point", "coordinates": [ -0.188799988852773, 51.425389996713506 ] } },
{ "type": "Feature", "properties": { "id": "SIH", "name": "St. Helier", "nlc_id": 5290, "nr_id": null, "category": "Other NR" }, "geometry": { "type": "Point", "coordinates": [ -0.198749988873022, 51.389839996692103 ] } },
{ "type": "Feature", "properties": { "id": "MDS", "name": "Morden South", "nlc_id": 5291, "nr_id": null, "category": "Other NR" }, "geometry": { "type": "Point", "coordinates": [ -0.199439988870385, 51.39605999669589 ] } },
{ "type": "Feature", "properties": { "id": "SMO", "name": "South Merton", "nlc_id": 5292, "nr_id": null, "category": "Other NR" }, "geometry": { "type": "Point", "coordinates": [ -0.205139988869318, 51.402939996700177 ] } },
{ "type": "Feature", "properties": { "id": "WSU", "name": "West Sutton", "nlc_id": 5293, "nr_id": null, "category": "Other NR" }, "geometry": { "type": "Point", "coordinates": [ -0.205159988886607, 51.365799996677644 ] } },
{ "type": "Feature", "properties": { "id": "910GCLPHHS", "name": "Clapham High Street", "nlc_id": 5301, "nr_id": null, "category": "Add OG" }, "geometry": { "type": "Point", "coordinates": [ -0.132391919244837, 51.465507802451761 ] } },
{ "type": "Feature", "properties": { "id": "910GNEWXGTE", "name": "New Cross Gate", "nlc_id": 5345, "nr_id": null, "category": "Add OG" }, "geometry": { "type": "Point", "coordinates": [ -0.040266977548704, 51.475432793481119 ] } },
{ "type": "Feature", "properties": { "id": "BLM", "name": "Belmont", "nlc_id": 5350, "nr_id": null, "category": "Other NR" }, "geometry": { "type": "Point", "coordinates": [ -0.198839988894522, 51.34375999666419 ] } },
{ "type": "Feature", "properties": { "id": "CHE", "name": "Cheam", "nlc_id": 5352, "nr_id": null, "category": "Other NR" }, "geometry": { "type": "Point", "coordinates": [ -0.214149988894792, 51.355419996671522 ] } },
{ "type": "Feature", "properties": { "id": "910GCRYSTLP", "name": "Crystal Palace", "nlc_id": 5356, "nr_id": null, "category": "Add OG" }, "geometry": { "type": "Point", "coordinates": [ -0.072204577626011, 51.417944993413002 ] } },
{ "type": "Feature", "properties": { "id": "EDW", "name": "East Dulwich", "nlc_id": 5358, "nr_id": null, "category": "Other NR" }, "geometry": { "type": "Point", "coordinates": [ -0.080549988795745, 51.461439996733077 ] } },
{ "type": "Feature", "properties": { "id": "910GFORESTH", "name": "Forest Hill", "nlc_id": 5362, "nr_id": null, "category": "Add OG" }, "geometry": { "type": "Point", "coordinates": [ -0.052834077591323, 51.439774893438525 ] } },
{ "type": "Feature", "properties": { "id": "GIP", "name": "Gipsy Hill", "nlc_id": 5363, "nr_id": null, "category": "Other NR" }, "geometry": { "type": "Point", "coordinates": [ -0.083819988814263, 51.424399996710676 ] } },
{ "type": "Feature", "properties": { "id": "HCB", "name": "Hackbridge", "nlc_id": 5364, "nr_id": null, "category": "Other NR" }, "geometry": { "type": "Point", "coordinates": [ -0.153889988861939, 51.377809996683951 ] } },
{ "type": "Feature", "properties": { "id": "910GWNDSWRD", "name": "Wandsworth Road", "nlc_id": 5372, "nr_id": null, "category": "Add OG" }, "geometry": { "type": "Point", "coordinates": [ -0.138179457974514, 51.46968302703511 ] } },
{ "type": "Feature", "properties": { "id": "910GNORWDJ", "name": "Norwood Junction", "nlc_id": 5376, "nr_id": null, "category": "Add OG" }, "geometry": { "type": "Point", "coordinates": [ -0.074624777647266, 51.39715339338796 ] } },
{ "type": "Feature", "properties": { "id": "910GPENEW", "name": "Penge West", "nlc_id": 5378, "nr_id": null, "category": "Add OG" }, "geometry": { "type": "Point", "coordinates": [ -0.060636377617942, 51.417477593411895 ] } },
{ "type": "Feature", "properties": { "id": "PUR", "name": "Purley", "nlc_id": 5379, "nr_id": null, "category": "Other NR" }, "geometry": { "type": "Point", "coordinates": [ -0.114019988866063, 51.337519996658855 ] } },
{ "type": "Feature", "properties": { "id": "CDN", "name": "Coulsdon Town", "nlc_id": 5382, "nr_id": null, "category": "Other NR" }, "geometry": { "type": "Point", "coordinates": [ -0.134449988880866, 51.321979996649887 ] } },
{ "type": "Feature", "properties": { "id": "STE", "name": "Streatham", "nlc_id": 5383, "nr_id": null, "category": "Other NR" }, "geometry": { "type": "Point", "coordinates": [ -0.131529988831278, 51.425749996712547 ] } },
{ "type": "Feature", "properties": { "id": "SRC", "name": "Streatham Common", "nlc_id": 5384, "nr_id": null, "category": "Other NR" }, "geometry": { "type": "Point", "coordinates": [ -0.135989988836235, 51.418669996708338 ] } },
{ "type": "Feature", "properties": { "id": "SUO", "name": "Sutton", "nlc_id": 5385, "nr_id": null, "category": "Other NR" }, "geometry": { "type": "Point", "coordinates": [ -0.191199988884354, 51.35946999667356 ] } },
{ "type": "Feature", "properties": { "id": "TTH", "name": "Thornton Heath", "nlc_id": 5388, "nr_id": null, "category": "Other NR" }, "geometry": { "type": "Point", "coordinates": [ -0.100289988832347, 51.398719996695505 ] } },
{ "type": "Feature", "properties": { "id": "TOO", "name": "Tooting", "nlc_id": 5389, "nr_id": null, "category": "Other NR" }, "geometry": { "type": "Point", "coordinates": [ -0.161259988845104, 51.419789996709554 ] } },
{ "type": "Feature", "properties": { "id": "TUH", "name": "Tulse Hill", "nlc_id": 5390, "nr_id": null, "category": "Other NR" }, "geometry": { "type": "Point", "coordinates": [ -0.105059988814912, 51.439799996720502 ] } },
{ "type": "Feature", "properties": { "id": "WDO", "name": "Waddon", "nlc_id": 5392, "nr_id": null, "category": "Other NR" }, "geometry": { "type": "Point", "coordinates": [ -0.117319988853311, 51.36733999667689 ] } },
{ "type": "Feature", "properties": { "id": "WLT", "name": "Wallington", "nlc_id": 5394, "nr_id": null, "category": "Other NR" }, "geometry": { "type": "Point", "coordinates": [ -0.150809988868962, 51.360329996673308 ] } },
{ "type": "Feature", "properties": { "id": "WSW", "name": "Wandsworth Common", "nlc_id": 5395, "nr_id": null, "category": "Other NR" }, "geometry": { "type": "Point", "coordinates": [ -0.163369988833633, 51.44612999672561 ] } },
{ "type": "Feature", "properties": { "id": "910GANERLEY", "name": "Anerley", "nlc_id": 5397, "nr_id": null, "category": "Add OG" }, "geometry": { "type": "Point", "coordinates": [ -0.06579797762662, 51.412264093405845 ] } },
{ "type": "Feature", "properties": { "id": "910GBROCKLY", "name": "Brockley", "nlc_id": 5404, "nr_id": null, "category": "Add OG" }, "geometry": { "type": "Point", "coordinates": [ -0.037468777556749, 51.46463819346787 ] } },
{ "type": "Feature", "properties": { "id": "CSH", "name": "Carshalton", "nlc_id": 5405, "nr_id": null, "category": "Other NR" }, "geometry": { "type": "Point", "coordinates": [ -0.166349988870952, 51.368399996678512 ] } },
{ "type": "Feature", "properties": { "id": "CSB", "name": "Carshalton Beeches", "nlc_id": 5406, "nr_id": null, "category": "Other NR" }, "geometry": { "type": "Point", "coordinates": [ -0.169779988877384, 51.357349996671886 ] } },
{ "type": "Feature", "properties": { "id": "CDS", "name": "Coulsdon South", "nlc_id": 5408, "nr_id": null, "category": "Other NR" }, "geometry": { "type": "Point", "coordinates": [ -0.137869988885031, 51.315779996646206 ] } },
{ "type": "Feature", "properties": { "id": "SCY", "name": "South Croydon", "nlc_id": 5410, "nr_id": null, "category": "Other NR" }, "geometry": { "type": "Point", "coordinates": [ -0.093439988846594, 51.362909996673736 ] } },
{ "type": "Feature", "properties": { "id": "910GWCROYDN", "name": "West Croydon", "nlc_id": 5411, "nr_id": "WCY", "category": "Add OG" }, "geometry": { "type": "Point", "coordinates": [ -0.102299988842587, 51.378423896683273 ] } },
{ "type": "Feature", "properties": { "id": "910GHONROPK", "name": "Honor Oak Park", "nlc_id": 5418, "nr_id": null, "category": "Add OG" }, "geometry": { "type": "Point", "coordinates": [ -0.045361277576242, 51.450013193450523 ] } },
{ "type": "Feature", "properties": { "id": "KLY", "name": "Kenley", "nlc_id": 5419, "nr_id": null, "category": "Other NR" }, "geometry": { "type": "Point", "coordinates": [ -0.100909988867254, 51.324719996650884 ] } },
{ "type": "Feature", "properties": { "id": "910GBATRSPK", "name": "Battersea Park", "nlc_id": 5420, "nr_id": null, "category": "Other NR with ltd OG" }, "geometry": { "type": "Point", "coordinates": [ -0.147444077625709, 51.478039993489389 ] } },
{ "type": "Feature", "properties": { "id": "910GDENMRKH", "name": "Denmark Hill", "nlc_id": 5421, "nr_id": null, "category": "Add OG" }, "geometry": { "type": "Point", "coordinates": [ -0.089005677591472, 51.468160693474701 ] } },
{ "type": "Feature", "properties": { "id": "910GPCKHMRY", "name": "Peckham Rye", "nlc_id": 5423, "nr_id": null, "category": "Add OG" }, "geometry": { "type": "Point", "coordinates": [ -0.0703863775765, 51.469449493475359 ] } },
{ "type": "Feature", "properties": { "id": "910GPCKHMQD", "name": "Queens Road Peckham", "nlc_id": 5424, "nr_id": null, "category": "Add OG" }, "geometry": { "type": "Point", "coordinates": [ -0.056991877562307, 51.474061293480283 ] } },
{ "type": "Feature", "properties": { "id": "SBM", "name": "South Bermondsey", "nlc_id": 5425, "nr_id": null, "category": "Other NR" }, "geometry": { "type": "Point", "coordinates": [ -0.054659988773745, 51.48807999674861 ] } },
{ "type": "Feature", "properties": { "id": "NRB", "name": "Norbury", "nlc_id": 5428, "nr_id": null, "category": "Other NR" }, "geometry": { "type": "Point", "coordinates": [ -0.121909988834413, 51.41138999670364 ] } },
{ "type": "Feature", "properties": { "id": "NDL", "name": "North Dulwich", "nlc_id": 5429, "nr_id": null, "category": "Other NR" }, "geometry": { "type": "Point", "coordinates": [ -0.087899988801727, 51.454449996729004 ] } },
{ "type": "Feature", "properties": { "id": "PUO", "name": "Purley Oaks", "nlc_id": 5430, "nr_id": null, "category": "Other NR" }, "geometry": { "type": "Point", "coordinates": [ -0.098839988856044, 51.346989996664249 ] } },
{ "type": "Feature", "properties": { "id": "RHM", "name": "Reedham", "nlc_id": 5431, "nr_id": null, "category": "Other NR" }, "geometry": { "type": "Point", "coordinates": [ -0.123399988872544, 51.331059996655128 ] } },
{ "type": "Feature", "properties": { "id": "RDD", "name": "Riddlesdown", "nlc_id": 5432, "nr_id": null, "category": "Other NR" }, "geometry": { "type": "Point", "coordinates": [ -0.099369988863068, 51.332429996655499 ] } },