<?xml version="1.0" encoding="utf-8"?>
<syndicatedFeed>
<header>
<identifier>TfL Traffic Cameras</identifier>
<version>0.1</version>
<publishDateTime>2015-06-01T00:48:22Z</publishDateTime>
<author>digital@tfl.gov.uk</author>
<owner>Transport for London</owner>
<refreshRate>1</refreshRate>
<max_Latency>10</max_Latency>
<timeToError>10</timeToError>
<overrideMessage />
<errorMessage />
<feedInfo></feedInfo>
<logo>http://www.tfl.gov.uk/tfl-global/images/roundel.gif</logo>
</header>
<cameraList updated="1433116102">
<rooturl>/tfl/livetravelnews/trafficcams/cctv/</rooturl>
<camera id="00001.01251" available="true">
<corridor></corridor>
<location>Old Street e of Vince St</location>
<currentView></currentView>
<file>0000101251.jpg</file>
<captureTime>2015-06-01T00:45:44Z</captureTime>
<easting>532899</easting>
<northing>182552</northing>
<lat>51.52625</lat>
<lng>-0.08563431</lng>
<osgr>TQ329826</osgr>
<postCode></postCode>
</camera>
<camera id="00001.01252" available="true">
<corridor></corridor>
<location>Curtain Rd / Old Street</location>
<currentView></currentView>
<file>0000101252.jpg</file>
<captureTime>2015-06-01T00:46:15Z</captureTime>
<easting>533252</easting>
<northing>182647</northing>
<lat>51.52702</lat>
<lng>-0.08051296</lng>
<osgr>TQ333826</osgr>
<postCode></postCode>
</camera>
<camera id="00001.01260" available="true">
<corridor></corridor>
<location>Old Street/Gt Eastern St</location>
<currentView></currentView>
<file>0000101260.jpg</file>
<captureTime>2015-06-01T00:46:51Z</captureTime>
<easting>533002</easting>
<northing>182580</northing>
<lat>51.526478</lat>
<lng>-0.08413989</lng>
<osgr>TQ330826</osgr>
<postCode></postCode>
</camera>
<camera id="00001.01301" available="true">
<corridor></corridor>
<location>Gt Eastern St/Curtain Rd</location>
<currentView></currentView>
<file>0000101301.jpg</file>
<captureTime>2015-06-01T00:46:41Z</captureTime>
<easting>533276</easting>
<northing>182355</northing>
<lat>51.52439</lat>
<lng>-0.08027758</lng>
<osgr>TQ333824</osgr>
<postCode></postCode>
</camera>
<camera id="00001.01350" available="true">
<corridor></corridor>
<location>East Road/Vestry Street</location>
<currentView></currentView>
<file>0000101350.jpg</file>
<captureTime>2015-06-01T00:46:23Z</captureTime>
<easting>532789</easting>
<northing>182931</northing>
<lat>51.529682</lat>
<lng>-0.08707626</lng>
<osgr>TQ328829</osgr>
<postCode></postCode>
</camera>
<camera id="00001.01400" available="true">
<corridor></corridor>
<location>Shoreditch High St/Commercial St</location>
<currentView></currentView>
<file>0000101400.jpg</file>
<captureTime>2015-06-01T00:41:28Z</captureTime>
<easting>533465</easting>
<northing>182187</northing>
<lat>51.52284</lat>
<lng>-0.07761848</lng>
<osgr>TQ335822</osgr>
<postCode></postCode>
</camera>
<camera id="00001.01401" available="true">
<corridor></corridor>
<location>A10 North of Holywell Ln</location>
<currentView></currentView>
<file>0000101401.jpg</file>
<captureTime>2015-06-01T00:46:54Z</captureTime>
<easting>533486</easting>
<northing>182301</northing>
<lat>51.523857</lat>
<lng>-0.07727282</lng>
<osgr>TQ335823</osgr>
<postCode></postCode>
</camera>
<camera id="00001.01402" available="true">
<corridor></corridor>
<location>Kingsland Rd/Hackney Rd</location>
<currentView></currentView>
<file>0000101402.jpg</file>
<captureTime>2015-06-01T00:45:40Z</captureTime>
<easting>533427</easting>
<northing>182695</northing>
<lat>51.527412</lat>
<lng>-0.07797365</lng>
<osgr>TQ334827</osgr>
<postCode></postCode>
</camera>
<camera id="00001.01403" available="true">
<corridor></corridor>
<location>A10 North of Waterson St</location>
<currentView></currentView>
<file>0000101403.jpg</file>
<captureTime>2015-06-01T00:46:33Z</captureTime>
<easting>533439</easting>
<northing>182866</northing>
<lat>51.528946</lat>
<lng>-0.07773605</lng>
<osgr>TQ334829</osgr>
<postCode></postCode>
</camera>
<camera id="00001.01404" available="true">
<corridor></corridor>
<location>A10 North of Shenfield St</location>
<currentView></currentView>
<file>0000101404.jpg</file>
<captureTime>2015-06-01T00:46:02Z</captureTime>
<easting>533484</easting>
<northing>183120</northing>
<lat>51.531216</lat>
<lng>-0.07699154</lng>
<osgr>TQ335831</osgr>
<postCode></postCode>
</camera>
<camera id="00001.01405" available="true">
<corridor></corridor>
<location>A10 South of Pearson St</location>
<currentView></currentView>
<file>0000101405.jpg</file>
<captureTime>2015-06-01T00:45:38Z</captureTime>
<easting>533476</easting>
<northing>183299</northing>
<lat>51.53283</lat>
<lng>-0.07703902</lng>
<osgr>TQ335833</osgr>
<postCode></postCode>
</camera>
<camera id="00001.01406" available="true">
<corridor></corridor>
<location>A10 South of Laburnum St</location>
<currentView></currentView>
<file>0000101406.jpg</file>
<captureTime>2015-06-01T00:45:41Z</captureTime>
<easting>533481</easting>
<northing>183531</northing>
<lat>51.534912</lat>
<lng>-0.07687911</lng>
<osgr>TQ335835</osgr>
<postCode></postCode>
</camera>
<camera id="00001.01407" available="true">
<corridor></corridor>
<location>A10 North of Lee Street</location>
<currentView></currentView>
<file>0000101407.jpg</file>
<captureTime>2015-06-01T00:45:35Z</captureTime>
<easting>533472</easting>
<northing>183937</northing>
<lat>51.538563</lat>
<lng>-0.076855004</lng>
<osgr>TQ335839</osgr>
<postCode></postCode>
</camera>
<camera id="00001.01408" available="false">
<corridor></corridor>
<location>A10 / Downham Road</location>
<currentView></currentView>
<file>0000101408.jpg</file>
<unavailabilityCause>In use keeping London moving</unavailabilityCause>
<captureTime>1970-01-01T00:00:00Z</captureTime>
<easting>533487</easting>
<northing>183992</northing>
<lat>51.53905</lat>
<lng>-0.076618016</lng>
<osgr>TQ335840</osgr>
<postCode></postCode>
</camera>
<camera id="00001.01409" available="true">
<corridor></corridor>
<location>A10 South of St Peters Way</location>
<currentView></currentView>
<file>0000101409.jpg</file>
<captureTime>2015-06-01T00:45:00Z</captureTime>
<easting>533478</easting>
<northing>184158</northing>
<lat>51.540546</lat>
<lng>-0.07668481</lng>
<osgr>TQ335842</osgr>
<postCode></postCode>
</camera>
<camera id="00001.01410" available="true">
<corridor></corridor>
<location>A10 Kingsland Rd/Stamford St</location>
<currentView></currentView>
<file>0000101410.jpg</file>
<captureTime>2015-06-01T00:46:14Z</captureTime>
<easting>533503</easting>
<northing>184589</northing>
<lat>51.544415</lat>
<lng>-0.0761612</lng>
<osgr>TQ335846</osgr>
<postCode></postCode>
</camera>
<camera id="00001.01412" available="true">
<corridor></corridor>
<location>A10 Kingsland High St/Winchester</location>
<currentView></currentView>
<file>0000101412.jpg</file>
<captureTime>2015-06-01T00:47:04Z</captureTime>
<easting>533549</easting>
<northing>185031</northing>
<lat>51.548374</lat>
<lng>-0.07533063</lng>
<osgr>TQ335850</osgr>
<postCode></postCode>
</camera>
<camera id="00001.01413" available="false">
<corridor></corridor>
<location>A10 Stoke Newington Rd/Millers Terrace</location>
<currentView></currentView>
<file>0000101413.jpg</file>
<unavailabilityCause>In use keeping London moving</unavailabilityCause>
<captureTime>1970-01-01T00:00:00Z</captureTime>
<easting>533563</easting>
<northing>185342</northing>
<lat>51.551167</lat>
<lng>-0.07501087</lng>
<osgr>TQ336853</osgr>
<postCode></postCode>
</camera>
<camera id="00001.01414" available="true">
<corridor></corridor>
<location>A10 Stoke Newington Rd/Barretts Grove</location>
<currentView></currentView>
<file>0000101414.jpg</file>
<captureTime>2015-06-01T00:44:55Z</captureTime>
<easting>533570</easting>
<northing>185461</northing>
<lat>51.552235</lat>
<lng>-0.07486483</lng>
<osgr>TQ336855</osgr>
<postCode></postCode>
</camera>
<camera id="00001.01416" available="true">
<corridor></corridor>
<location>A10 South of Farleigh Rd</location>
<currentView></currentView>
<file>0000101416.jpg</file>
<captureTime>2015-06-01T00:47:09Z</captureTime>
<easting>533577</easting>
<northing>185744</northing>
<lat>51.554775</lat>
<lng>-0.07465654</lng>
<osgr>TQ336857</osgr>
<postCode></postCode>
</camera>
<camera id="00001.01417" available="true">
<corridor></corridor>
<location>A10 North of Walford Rd</location>
<currentView></currentView>
<file>0000101417.jpg</file>
<captureTime>2015-06-01T00:44:56Z</captureTime>
<easting>533573</easting>
<northing>185867</northing>
<lat>51.55588</lat>
<lng>-0.07466753</lng>
<osgr>TQ336859</osgr>
<postCode></postCode>
</camera>
<camera id="00001.01418" available="true">
<corridor></corridor>
<location>A10 North of Evering Rd</location>
<currentView></currentView>
<file>0000101418.jpg</file>
<captureTime>2015-06-01T00:44:56Z</captureTime>
<easting>533934</easting>
<northing>186144</northing>
<lat>51.558285</lat>
<lng>-0.06935808</lng>
<osgr>TQ339861</osgr>
<postCode></postCode>
</camera>
<camera id="00001.01419" available="true">
<corridor></corridor>
<location>A10 North of Tyssen Road</location>
<currentView></currentView>
<file>0000101419.jpg</file>
<captureTime>2015-06-01T00:46:43Z</captureTime>
<easting>533592</easting>
<northing>186282</northing>
<lat>51.559605</lat>
<lng>-0.0742361</lng>
<osgr>TQ336863</osgr>
<postCode></postCode>
</camera>
<camera id="00001.01420" available="true">
<corridor></corridor>
<location>A10 North of Brooke Road</location>
<currentView></currentView>
<file>0000101420.jpg</file>
<captureTime>2015-06-01T00:45:25Z</captureTime>
<easting>533844</easting>
<northing>186399</northing>
<lat>51.560596</lat>
<lng>-0.07055857</lng>
<osgr>TQ338864</osgr>
<postCode></postCode>
</camera>
<camera id="00001.01421" available="true">
<corridor></corridor>
<location>A10 North of Northwold Rd</location>
<currentView></currentView>
<file>0000101421.jpg</file>
<captureTime>2015-06-01T00:45:39Z</captureTime>
<easting>533649</easting>
<northing>186725</northing>
<lat>51.563572</lat>
<lng>-0.07324608</lng>
<osgr>TQ336867</osgr>
<postCode></postCode>
</camera>
<camera id="00001.01422" available="true">
<corridor></corridor>
<location>A10 Stamford Hill/Lampard Grove</location>
<currentView></currentView>
<file>0000101422.jpg</file>
<captureTime>2015-06-01T00:46:04Z</captureTime>
<easting>533666</easting>
<northing>187094</northing>
<lat>51.566887</lat>
<lng>-0.07286077</lng>
<osgr>TQ337871</osgr>
<postCode></postCode>
</camera>
<camera id="00001.01424" available="true">
<corridor></corridor>
<location>Tottenham High Road / Seven Sisters Rd</location>
<currentView></currentView>
<file>0000101424.jpg</file>
<captureTime>2015-06-01T00:46:06Z</captureTime>
<easting>533660</easting>
<northing>188895</northing>
<lat>51.583073</lat>
<lng>-0.07226262</lng>
<osgr>TQ337889</osgr>
<postCode></postCode>
</camera>
<camera id="00001.01426" available="true">
<corridor></corridor>
<location>A10 High Rd/Forster Rd</location>
<currentView></currentView>
<file>0000101426.jpg</file>
<captureTime>2015-06-01T00:47:06Z</captureTime>
<easting>533790</easting>
<northing>189879</northing>
<lat>51.591885</lat>
<lng>-0.07001277</lng>
<osgr>TQ338899</osgr>
<postCode></postCode>
</camera>
<camera id="00001.01427" available="true">
<corridor></corridor>
<location>Bruce Grove</location>
<currentView></currentView>
<file>0000101427.jpg</file>
<captureTime>2015-06-01T00:46:29Z</captureTime>
<easting>533824</easting>
<northing>190113</northing>
<lat>51.59398</lat>
<lng>-0.06943309</lng>
<osgr>TQ338901</osgr>
<postCode></postCode>
</camera>
<camera id="00001.01428" available="true">
<corridor></corridor>
<location>A10 Grt Cambridge Rd/Devonshire H Ln</location>
<currentView></currentView>
<file>0000101428.jpg</file>
<captureTime>2015-06-01T00:44:53Z</captureTime>
<easting>532670</easting>
<northing>191502</northing>
<lat>51.60673</lat>
<lng>-0.08555785</lng>
<osgr>TQ327915</osgr>
<postCode></postCode>
</camera>
<camera id="00001.01432" available="true">
<corridor></corridor>
<location>Lr Clapton Rd/Thislewaite Rd</location>
<currentView></currentView>
<file>0000101432.jpg</file>
<captureTime>2015-06-01T00:46:53Z</captureTime>
<easting>534868</easting>
<northing>186025</northing>
<lat>51.55699</lat>
<lng>-0.05593888</lng>
<osgr>TQ349860</osgr>
<postCode></postCode>
</camera>
<camera id="00001.01433" available="true">
<corridor></corridor>
<location>Clapton Common/Lewstone Place</location>
<currentView></currentView>
<file>0000101433.jpg</file>
<captureTime>2015-06-01T00:44:57Z</captureTime>
<easting>533795</easting>
<northing>187768</northing>
<lat>51.57291</lat>
<lng>-0.0707443</lng>
<osgr>TQ338878</osgr>
<postCode></postCode>
</camera>
<camera id="00001.01438" available="true">
<corridor></corridor>
<location>Stoke Newington Rd/Evering Rd</location>
<currentView></currentView>
<file>0000101438.jpg</file>
<captureTime>2015-06-01T00:44:55Z</captureTime>
<easting>533570</easting>
<northing>186003</northing>
<lat>51.557106</lat>
<lng>-0.07465916</lng>
<osgr>TQ336860</osgr>
<postCode></postCode>
</camera>
<camera id="00001.01439" available="true">
<corridor></corridor>
<location>Shoreditch High St/Batemans Row</location>
<currentView></currentView>
<file>0000101439.jpg</file>
<captureTime>2015-06-01T00:45:19Z</captureTime>
<easting>533479</easting>
<northing>182451</northing>
<lat>51.525208</lat>
<lng>-0.07731687</lng>
<osgr>TQ335825</osgr>
<postCode></postCode>
</camera>
<camera id="00001.01440" available="true">
<corridor></corridor>
<location>Bruce Grove/Woodside Gardens</location>
<currentView></currentView>
<file>0000101440.jpg</file>
<captureTime>2015-06-01T00:46:14Z</captureTime>
<easting>533712</easting>
<northing>190245</northing>
<lat>51.595192</lat>
<lng>-0.070998736</lng>
<osgr>TQ337902</osgr>
<postCode></postCode>
</camera>
<camera id="00001.01441" available="true">
<corridor></corridor>
<location>Stamford Hill/Dunsmure Road</location>
<currentView></currentView>
<file>0000101441.jpg</file>
<captureTime>2015-06-01T00:45:21Z</captureTime>
<easting>533649</easting>
<northing>187463</northing>
<lat>51.570206</lat>
<lng>-0.07296568</lng>
<osgr>TQ336875</osgr>
<postCode></postCode>
</camera>
<camera id="00001.01442" available="true">
<corridor></corridor>
<location>Stamford Hill/Egerton Rd</location>
<currentView></currentView>
<file>0000101442.jpg</file>
<captureTime>2015-06-01T00:44:47Z</captureTime>
<easting>533689</easting>
<northing>187922</northing>
<lat>51.57432</lat>
<lng>-0.07221437</lng>
<osgr>TQ337879</osgr>
<postCode></postCode>
</camera>
<camera id="00001.01462" available="true">
<corridor></corridor>
<location>Grt Cambridge Rd/Bury St</location>
<currentView></currentView>
<file>0000101462.jpg</file>
<captureTime>2015-06-01T00:46:39Z</captureTime>
<easting>533689</easting>
<northing>194574</northing>
<lat>51.634098</lat>
<lng>-0.06968075</lng>
<osgr>TQ337946</osgr>
<postCode></postCode>
</camera>
<camera id="00001.01467" available="true">
<corridor></corridor>
<location>A10/Carterhatch Lane</location>
<currentView></currentView>
<file>0000101467.jpg</file>
<captureTime>2015-06-01T00:46:53Z</captureTime>
<easting>534344</easting>
<northing>197389</northing>
<lat>51.659237</lat>
<lng>-0.059142265</lng>
<osgr>TQ343974</osgr>
<postCode></postCode>
</camera>
<camera id="00001.01510" available="true">
<corridor></corridor>
<location>Balls Pond Rd/Henshall St</location>
<currentView></currentView>
<file>0000101510.jpg</file>
<captureTime>2015-06-01T00:46:35Z</captureTime>
<easting>532821</easting>
<northing>184800</northing>
<lat>51.54647</lat>
<lng>-0.08591068</lng>
<osgr>TQ328848</osgr>
<postCode></postCode>
</camera>
<camera id="00001.01601" available="true">
<corridor></corridor>
<location>Lwr Clapton/Powerscroft</location>
<currentView></currentView>
<file>0000101601.jpg</file>
<captureTime>2015-06-01T00:45:01Z</captureTime>
<easting>535104</easting>
<northing>185541</northing>
<lat>51.55259</lat>
<lng>-0.052722514</lng>
<osgr>TQ351855</osgr>
<postCode></postCode>
</camera>
<camera id="00001.01604" available="true">
<corridor></corridor>
<location>Upper Clapton Rd/Rossington St</location>
<currentView></currentView>
<file>0000101604.jpg</file>
<captureTime>2015-06-01T00:45:38Z</captureTime>
<easting>534615</easting>
<northing>186797</northing>
<lat>51.56399</lat>
<lng>-0.059290767</lng>
<osgr>TQ346868</osgr>
<postCode></postCode>
</camera>
<camera id="00001.01605" available="true">
<corridor></corridor>
<location>Lower Clapton Rd/Rowhill Rd</location>
<currentView></currentView>
<file>0000101605.jpg</file>
<captureTime>2015-06-01T00:47:09Z</captureTime>
<easting>535009</easting>
<northing>185709</northing>
<lat>51.55412</lat>
<lng>-0.054027457</lng>
<osgr>TQ350857</osgr>
<postCode></postCode>
</camera>
<camera id="00001.01606" available="true">
<corridor></corridor>
<location>Homerton High St/Digby Road</location>
<currentView></currentView>
<file>0000101606.jpg</file>
<captureTime>2015-06-01T00:46:48Z</captureTime>
<easting>535688</easting>
<northing>185073</northing>
<lat>51.54824</lat>
<lng>-0.044484884</lng>
<osgr>TQ357851</osgr>
<postCode></postCode>
</camera>
<camera id="00001.01607" available="true">
<corridor></corridor>
<location>A12 East Cross Route/Benn St</location>
<currentView></currentView>
<file>0000101607.jpg</file>
<captureTime>2015-06-01T00:44:59Z</captureTime>
<easting>536455</easting>
<northing>184825</northing>
<lat>51.54583</lat>
<lng>-0.033526283</lng>
<osgr>TQ365848</osgr>
<postCode></postCode>
</camera>
<camera id="00001.01609" available="true">
<corridor></corridor>
<location>Clapton Common/Forburg Rd</location>
<currentView></currentView>
<file>0000101609.jpg</file>
<captureTime>2015-06-01T00:47:10Z</captureTime>
<easting>534414</easting>
<northing>187350</northing>
<lat>51.569008</lat>
<lng>-0.061977495</lng>
<osgr>TQ344874</osgr>
<postCode></postCode>
</camera>
<camera id="00001.01611" available="true">
<corridor></corridor>
<location>Kenworthy Rd/Brookfield Rd/Wick Rd</location>
<currentView></currentView>
<file>0000101611.jpg</file>
<captureTime>2015-06-01T00:46:14Z</captureTime>
<easting>536315</easting>
<northing>184753</northing>
<lat>51.545216</lat>
<lng>-0.035571847</lng>
<osgr>TQ363848</osgr>
<postCode></postCode>
</camera>
<camera id="00001.01612" available="true">
<corridor></corridor>
<location>Eastway/Lee Interchange</location>
<currentView></currentView>
<file>0000101612.jpg</file>
<captureTime>2015-06-01T00:45:40Z</captureTime>
<easting>537320</easting>
<northing>185489</northing>
<lat>51.551586</lat>
<lng>-0.020800928</lng>
<osgr>TQ373855</osgr>
<postCode></postCode>
</camera>
<camera id="00001.01615" available="true">
<corridor></corridor>
<location>Ruckholt Rd/Sherrin Rd</location>
<currentView></currentView>
<file>0000101615.jpg</file>
<captureTime>2015-06-01T00:46:13Z</captureTime>
<easting>537577</easting>
<northing>185838</northing>
<lat>51.55466</lat>
<lng>-0.016960187</lng>
<osgr>TQ376858</osgr>
<postCode></postCode>
</camera>
<camera id="00001.01685" available="true">
<corridor></corridor>
<location>Hackney Rd/Camb Heath Rd</location>
<currentView></currentView>
<file>0000101685.jpg</file>
<captureTime>2015-06-01T00:46:30Z</captureTime>
<easting>534865</easting>
<northing>183315</northing>
<lat>51.532642</lat>
<lng>-0.057019833</lng>
<osgr>TQ349833</osgr>
<postCode></postCode>
</camera>
<camera id="00001.02001" available="true">
<corridor></corridor>
<location>Goodmans Yard/ Mansell Street</location>
<currentView></currentView>
<file>0000102001.jpg</file>
<captureTime>2015-06-01T00:45:37Z</captureTime>
<easting>533819</easting>
<northing>180906</northing>
<lat>51.511242</lat>
<lng>-0.07300497</lng>
<osgr>TQ338809</osgr>
<postCode></postCode>
</camera>
<camera id="00001.02002" available="true">
<corridor></corridor>
<location>Lower Thames St/London Bridge</location>
<currentView></currentView>
<file>0000102002.jpg</file>
<captureTime>2015-06-01T00:45:49Z</captureTime>
<easting>532873</easting>
<northing>180686</northing>
<lat>51.509487</lat>
<lng>-0.08671175</lng>
<osgr>TQ329807</osgr>
<postCode></postCode>
</camera>
<camera id="00001.02025" available="true">
<corridor></corridor>
<location>Leman St / Prescot St</location>
<currentView></currentView>
<file>0000102025.jpg</file>
<captureTime>2015-06-01T00:43:12Z</captureTime>
<easting>534076</easting>
<northing>180998</northing>
<lat>51.51201</lat>
<lng>-0.06926882</lng>
<osgr>TQ341810</osgr>
<postCode></postCode>
</camera>
<camera id="00001.02050" available="true">
<corridor></corridor>
<location>Commercial St N of Pomell Way</location>
<currentView></currentView>
<file>0000102050.jpg</file>
<captureTime>2015-06-01T00:46:51Z</captureTime>
<easting>533826</easting>
<northing>181455</northing>
<lat>51.516174</lat>
<lng>-0.072695926</lng>
<osgr>TQ338815</osgr>
<postCode></postCode>
</camera>
<camera id="00001.02075" available="true">
<corridor></corridor>
<location>Commercial St/Brushfield</location>
<currentView></currentView>
<file>0000102075.jpg</file>
<captureTime>2015-06-01T00:45:44Z</captureTime>
<easting>533682</easting>
<northing>181788</northing>
<lat>51.5192</lat>
<lng>-0.07464378</lng>
<osgr>TQ337818</osgr>
<postCode></postCode>
</camera>
<camera id="00001.02080" available="true">
<corridor></corridor>
<location>Bethnal Gr Rd/Satchwell Rd</location>
<currentView></currentView>
<file>0000102080.jpg</file>
<captureTime>2015-06-01T00:46:41Z</captureTime>
<easting>534050</easting>
<northing>182546</northing>
<lat>51.525925</lat>
<lng>-0.069054976</lng>
<osgr>TQ341825</osgr>
<postCode></postCode>
</camera>
<camera id="00001.02100" available="true">
<corridor></corridor>
<location>Whitechapel High St/Mansell St</location>
<currentView></currentView>
<file>0000102100.jpg</file>
<captureTime>2015-06-01T00:47:08Z</captureTime>
<easting>533733</easting>
<northing>181258</northing>
<lat>51.514427</lat>
<lng>-0.07411009</lng>
<osgr>TQ337813</osgr>
<postCode></postCode>
</camera>
<camera id="00001.02101" available="true">
<corridor></corridor>
<location>Whitechapel Rd/White Church Ln</location>
<currentView></currentView>
<file>0000102101.jpg</file>
<captureTime>2015-06-01T00:47:05Z</captureTime>
<easting>534086</easting>
<northing>181479</northing>
<lat>51.516327</lat>
<lng>-0.06894201</lng>
<osgr>TQ341815</osgr>
<postCode></postCode>
</camera>
<camera id="00001.02102" available="true">
<corridor></corridor>
<location>Whitechapel Rd/Fieldgate St</location>
<currentView></currentView>
<file>0000102102.jpg</file>
<captureTime>2015-06-01T00:45:16Z</captureTime>
<easting>534293</easting>
<northing>181618</northing>
<lat>51.51753</lat>
<lng>-0.06590766</lng>
<osgr>TQ343816</osgr>
<postCode></postCode>
</camera>
<camera id="00001.02103" available="true">
<corridor></corridor>
<location>Whitechapel Rd/Court St LBTH</location>
<currentView></currentView>
<file>0000102103.jpg</file>
<captureTime>2015-06-01T00:44:56Z</captureTime>
<easting>534623</easting>
<northing>181762</northing>
<lat>51.518745</lat>
<lng>-0.061099563</lng>
<osgr>TQ346818</osgr>
<postCode></postCode>
</camera>
<camera id="00001.02104" available="true">
<corridor></corridor>
<location>Mile End Rd/Cleveland Way</location>
<currentView></currentView>
<file>0000102104.jpg</file>
<captureTime>2015-06-01T00:46:39Z</captureTime>
<easting>535237</easting>
<northing>181978</northing>
<lat>51.52054</lat>
<lng>-0.052172847</lng>
<osgr>TQ352820</osgr>
<postCode></postCode>
</camera>
<camera id="00001.02105" available="true">
<corridor></corridor>
<location>Mile End Rd/Cephas Ave</location>
<currentView></currentView>
<file>0000102105.jpg</file>
<captureTime>2015-06-01T00:46:10Z</captureTime>
<easting>535459</easting>
<northing>182059</northing>
<lat>51.521214</lat>
<lng>-0.048943985</lng>
<osgr>TQ355821</osgr>
<postCode></postCode>
</camera>
<camera id="00001.02108" available="true">
<corridor></corridor>
<location>Mile End Rd/Southern Grove</location>
<currentView></currentView>
<file>0000102108.jpg</file>
<captureTime>2015-06-01T00:46:09Z</captureTime>
<easting>536639</easting>
<northing>182588</northing>
<lat>51.52568</lat>
<lng>-0.031741858</lng>
<osgr>TQ366826</osgr>
<postCode></postCode>
</camera>
<camera id="00001.02109" available="true">
<corridor></corridor>
<location>Mile End Rd/Cambridge Heath Rd</location>
<currentView></currentView>
<file>0000102109.jpg</file>
<captureTime>2015-06-01T00:46:31Z</captureTime>
<easting>534998</easting>
<northing>181896</northing>
<lat>51.51986</lat>
<lng>-0.055646863</lng>
<osgr>TQ350819</osgr>
<postCode></postCode>
</camera>
<camera id="00001.02110" available="true">
<corridor></corridor>
<location>Bow Rd/Alfred St</location>
<currentView></currentView>
<file>0000102110.jpg</file>
<captureTime>2015-06-01T00:44:56Z</captureTime>
<easting>537068</easting>
<northing>182759</northing>
<lat>51.527115</lat>
<lng>-0.025495335</lng>
<osgr>TQ371828</osgr>
<postCode></postCode>
</camera>
<camera id="00001.02115" available="true">
<corridor></corridor>
<location>Mile End Rd/Globe Rd</location>
<currentView></currentView>
<file>0000102115.jpg</file>
<captureTime>2015-06-01T00:45:01Z</captureTime>
<easting>535658</easting>
<northing>182131</northing>
<lat>51.521812</lat>
<lng>-0.046049803</lng>
<osgr>TQ357821</osgr>
<postCode></postCode>
</camera>
<camera id="00001.02145" available="true">
<corridor></corridor>
<location>High Street/Rick Roberts Way</location>
<currentView></currentView>
<file>0000102145.jpg</file>
<captureTime>2015-06-01T00:46:42Z</captureTime>
<easting>538424</easting>
<northing>183678</northing>
<lat>51.53504</lat>
<lng>-0.005599886</lng>
<osgr>TQ384837</osgr>
<postCode></postCode>
</camera>
<camera id="00001.02146" available="true">
<corridor></corridor>
<location>Great Eastern Rd/Angel Lane Bridge</location>
<currentView></currentView>
<file>0000102146.jpg</file>
<captureTime>2015-06-01T00:45:17Z</captureTime>
<easting>538802</easting>
<northing>184724</northing>
<lat>51.54435</lat>
<lng>2.5860898E-4</lng>
<osgr>TQ388847</osgr>
<postCode></postCode>
</camera>
<camera id="00001.02147" available="false">
<corridor></corridor>
<location>Major Rd/Crownfield Rd</location>
<currentView></currentView>
<file>0000102147.jpg</file>
<unavailabilityCause>In%20use%20keeping London%20moving</unavailabilityCause>
<captureTime>1970-01-01T00:00:00Z</captureTime>
<easting>538485</easting>
<northing>185458</northing>
<lat>51.55102</lat>
<lng>-0.004021145</lng>
<osgr>TQ385855</osgr>
<postCode></postCode>
</camera>
<camera id="00001.02150" available="true">
<corridor></corridor>
<location>Stratford Broadway/Gt Eastern Rd</location>
<currentView></currentView>
<file>0000102150.jpg</file>
<captureTime>2015-06-01T00:46:11Z</captureTime>
<easting>538761</easting>
<northing>184166</northing>
<lat>51.539345</lat>
<lng>-5.5206293E-4</lng>
<osgr>TQ388842</osgr>
<postCode></postCode>
</camera>
<camera id="00001.02154" available="true">
<corridor></corridor>
<location>Romford Rd / Sprowston Rd</location>
<currentView></currentView>
<file>0000102154.jpg</file>
<captureTime>2015-06-01T00:45:05Z</captureTime>
<easting>540428</easting>
<northing>184998</northing>
<lat>51.54641</lat>
<lng>0.023800462</lng>
<osgr>TQ404850</osgr>
<postCode></postCode>
</camera>
<camera id="00001.02160" available="true">
<corridor></corridor>
<location>Romford Rd/ Rabbits Rd</location>
<currentView></currentView>
<file>0000102160.jpg</file>
<captureTime>2015-06-01T00:46:54Z</captureTime>
<easting>542485</easting>
<northing>185765</northing>
<lat>51.552788</lat>
<lng>0.05375548</lng>
<osgr>TQ425858</osgr>
<postCode></postCode>
</camera>
<camera id="00001.02200" available="true">
<corridor></corridor>
<location>Burdett Rd/Mile End Rd</location>
<currentView></currentView>
<file>0000102200.jpg</file>
<captureTime>2015-06-01T00:44:56Z</captureTime>
<easting>536429</easting>
<northing>182460</northing>
<lat>51.524582</lat>
<lng>-0.034816597</lng>
<osgr>TQ364825</osgr>
<postCode></postCode>
</camera>
<camera id="00001.02202" available="true">
<corridor></corridor>
<location>Burdett Rd/Eric St</location>
<currentView></currentView>
<file>0000102202.jpg</file>
<captureTime>2015-06-01T00:45:00Z</captureTime>
<easting>536583</easting>
<northing>182040</northing>
<lat>51.52077</lat>
<lng>-0.03276083</lng>
<osgr>TQ366820</osgr>
<postCode></postCode>
</camera>
<camera id="00001.02204" available="true">
<corridor></corridor>
<location>Burdett Rd/Pixley St</location>
<currentView></currentView>
<file>0000102204.jpg</file>
<captureTime>2015-06-01T00:46:59Z</captureTime>
<easting>536915</easting>
<northing>181307</northing>
<lat>51.514103</lat>
<lng>-0.028263142</lng>
<osgr>TQ369813</osgr>
<postCode></postCode>
</camera>
<camera id="00001.02206" available="true">
<corridor></corridor>
<location>Burdett Rd/Ackroyd Drive</location>
<currentView></currentView>
<file>0000102206.jpg</file>
<captureTime>2015-06-01T00:46:52Z</captureTime>
<easting>536777</easting>
<northing>181749</northing>
<lat>51.51811</lat>
<lng>-0.030079262</lng>
<osgr>TQ368817</osgr>
<postCode></postCode>
</camera>
<camera id="00001.02252" available="true">
<corridor></corridor>
<location>Commercial Rd/Gowers Walk</location>
<currentView></currentView>
<file>0000102252.jpg</file>
<captureTime>2015-06-01T00:46:00Z</captureTime>
<easting>534150</easting>
<northing>181318</northing>
<lat>51.514866</lat>
<lng>-0.06808143</lng>
<osgr>TQ342813</osgr>
<postCode></postCode>
</camera>
<camera id="00001.02253" available="true">
<corridor></corridor>
<location>Commercial Rd/New Rd</location>
<currentView></currentView>
<file>0000102253.jpg</file>
<captureTime>2015-06-01T00:45:33Z</captureTime>
<easting>534552</easting>
<northing>181325</northing>
<lat>51.51483</lat>
<lng>-0.06228891</lng>
<osgr>TQ346813</osgr>
<postCode></postCode>
</camera>
<camera id="00001.02254" available="true">
<corridor></corridor>
<location>Commercial Rd/Cannon St Rd</location>
<currentView></currentView>
<file>0000102254.jpg</file>
<captureTime>2015-06-01T00:45:24Z</captureTime>
<easting>534598</easting>
<northing>181308</northing>
<lat>51.51467</lat>
<lng>-0.06163288</lng>
<osgr>TQ346813</osgr>
<postCode></postCode>
</camera>
<camera id="00001.02255" available="true">
<corridor></corridor>
<location>Commercial Rd/Dean Cross St</location>
<currentView></currentView>
<file>0000102255.jpg</file>
<captureTime>2015-06-01T00:46:56Z</captureTime>
<easting>535093</easting>
<northing>181283</northing>
<lat>51.514328</lat>
<lng>-0.054513223</lng>
<osgr>TQ351813</osgr>
<postCode></postCode>
</camera>
<camera id="00001.02256" available="false">
<corridor></corridor>
<location>Commercial Rd/Jubilee St</location>
<currentView></currentView>
<file>0000102256.jpg</file>
<unavailabilityCause>In use keeping London moving</unavailabilityCause>
<captureTime>1970-01-01T00:00:00Z</captureTime>
<easting>535196</easting>
<northing>181275</northing>
<lat>51.51423</lat>
<lng>-0.053032845</lng>
<osgr>TQ352813</osgr>
<postCode></postCode>
</camera>
<camera id="00001.02258" available="false">
<corridor></corridor>
<location>A13 Commercial Road/Salmon Lane</location>
<currentView></currentView>
<file>0000102258.jpg</file>
<unavailabilityCause>In use keeping London moving</unavailabilityCause>
<captureTime>1970-01-01T00:00:00Z</captureTime>
<easting>536661</easting>
<northing>181108</northing>
<lat>51.51238</lat>
<lng>-0.031998347</lng>
<osgr>TQ367811</osgr>
<postCode></postCode>
</camera>
<camera id="00001.02259" available="true">
<corridor></corridor>
<location>East India Dock Rd/Amoy Pl</location>
<currentView></currentView>
<file>0000102259.jpg</file>
<captureTime>2015-06-01T00:43:58Z</captureTime>
<easting>536971</easting>
<northing>181038</northing>
<lat>51.511673</lat>
<lng>-0.027561048</lng>
<osgr>TQ370810</osgr>
<postCode></postCode>
</camera>
<camera id="00001.02260" available="true">
<corridor></corridor>
<location>East India Dock Rd/Upper Nth St</location>
<currentView></currentView>
<file>0000102260.jpg</file>
<captureTime>2015-06-01T00:45:39Z</captureTime>
<easting>537405</easting>
<northing>180967</northing>
<lat>51.51093</lat>
<lng>-0.021338552</lng>
<osgr>TQ374810</osgr>
<postCode></postCode>
</camera>
<camera id="00001.02262" available="true">
<corridor></corridor>
<location>East India Dock Rd/Chrisp St</location>
<currentView></currentView>
<file>0000102262.jpg</file>
<captureTime>2015-06-01T00:45:40Z</captureTime>
<easting>537914</easting>
<northing>181015</northing>
<lat>51.51124</lat>
<lng>-0.013989708</lng>
<osgr>TQ379810</osgr>
<postCode></postCode>
</camera>
<camera id="00001.02263" available="true">
<corridor></corridor>
<location>East India Dock Rd/Leamouth Rd</location>
<currentView></currentView>
<file>0000102263.jpg</file>
<captureTime>2015-06-01T00:45:29Z</captureTime>
<easting>538824</easting>
<northing>181215</northing>
<lat>51.512814</lat>
<lng>-8.06167E-4</lng>
<osgr>TQ388812</osgr>
<postCode></postCode>
</camera>
<camera id="00001.02264" available="true">
<corridor></corridor>
<location>A13 Alfreds Way/Movers Ln</location>
<currentView></currentView>
<file>0000102264.jpg</file>
<captureTime>2015-06-01T00:46:31Z</captureTime>
<easting>545290</easting>
<northing>183337</northing>
<lat>51.530254</lat>
<lng>0.09318324</lng>
<osgr>TQ453833</osgr>
<postCode></postCode>
</camera>
<camera id="00001.02265" available="true">
<corridor></corridor>
<location>Aspen Way/Cotton Street</location>
<currentView></currentView>
<file>0000102265.jpg</file>
<captureTime>2015-06-01T00:44:59Z</captureTime>
<easting>538201</easting>
<northing>180575</northing>
<lat>51.507214</lat>
<lng>-0.010028919</lng>
<osgr>TQ382806</osgr>
<postCode></postCode>
</camera>
<camera id="00001.02267" available="true">
<corridor></corridor>
<location>A13 East India Dock/Cotton St</location>
<currentView></currentView>
<file>0000102267.jpg</file>
<captureTime>2015-06-01T00:46:13Z</captureTime>
<easting>538210</easting>
<northing>181047</northing>
<lat>51.51145</lat>
<lng>-0.009714478</lng>
<osgr>TQ382810</osgr>
<postCode></postCode>
</camera>
<camera id="00001.02268" available="true">
<corridor></corridor>
<location>Commercial Rd/Albert Gardens</location>
<currentView></currentView>
<file>0000102268.jpg</file>
<captureTime>2015-06-01T00:45:34Z</captureTime>
<easting>535623</easting>
<northing>181179</northing>
<lat>51.513264</lat>
<lng>-0.046919975</lng>
<osgr>TQ356812</osgr>
<postCode></postCode>
</camera>
<camera id="00001.02269" available="true">
<corridor></corridor>
<location>Commercial Rd/Westport St</location>
<currentView></currentView>
<file>0000102269.jpg</file>
<captureTime>2015-06-01T00:47:06Z</captureTime>
<easting>535856</easting>
<northing>181178</northing>
<lat>51.5132</lat>
<lng>-0.04356471</lng>
<osgr>TQ359812</osgr>
<postCode></postCode>
</camera>
<camera id="00001.02300" available="true">
<corridor></corridor>
<location>Barking Rd/King St</location>
<currentView></currentView>
<file>0000102300.jpg</file>
<captureTime>2015-06-01T00:44:27Z</captureTime>
<easting>540197</easting>
<northing>182147</northing>
<lat>51.520847</lat>
<lng>0.01933718</lng>
<osgr>TQ402821</osgr>
<postCode></postCode>
</camera>
<camera id="00001.02310" available="false">
<corridor></corridor>
<location>Connaught Bridge/Connaught Rd</location>
<currentView></currentView>
<file>0000102310.jpg</file>
<unavailabilityCause>In use keeping London moving</unavailabilityCause>
<captureTime>1970-01-01T00:00:00Z</captureTime>
<easting>541655</easting>
<northing>180410</northing>
<lat>51.504875</lat>
<lng>0.039640322</lng>
<osgr>TQ417804</osgr>
<postCode></postCode>
</camera>
<camera id="00001.02312" available="true">
<corridor></corridor>
<location>Silvertown Way/Tidal Basin Rd</location>
<currentView></currentView>
<file>0000102312.jpg</file>
<captureTime>2015-06-01T00:46:31Z</captureTime>
<easting>540063</easting>
<northing>180744</northing>
<lat>51.508274</lat>
<lng>0.016850093</lng>
<osgr>TQ401807</osgr>
<postCode></postCode>
</camera>
<camera id="00001.02313" available="true">
<corridor></corridor>
<location>Lwr Lea Crossing/Blackwall Way</location>
<currentView></currentView>
<file>0000102313.jpg</file>
<captureTime>2015-06-01T00:46:50Z</captureTime>
<easting>539030</easting>
<northing>180924</northing>
<lat>51.510147</lat>
<lng>0.0020458694</lng>
<osgr>TQ390809</osgr>
<postCode></postCode>
</camera>
<camera id="00001.02314" available="true">
<corridor></corridor>
<location>Barking Rd/Prince Regent Lane</location>
<currentView></currentView>
<file>0000102314.jpg</file>
<captureTime>2015-06-01T00:46:03Z</captureTime>
<easting>540862</easting>
<northing>182731</northing>
<lat>51.525932</lat>
<lng>0.029148925</lng>
<osgr>TQ409827</osgr>
<postCode></postCode>
</camera>
<camera id="00001.02331" available="true">
<corridor></corridor>
<location>Manor Rd/New Plaistow Rd</location>
<currentView></currentView>
<file>0000102331.jpg</file>
<captureTime>2015-06-01T00:45:34Z</captureTime>
<easting>539423</easting>
<northing>183724</northing>
<lat>51.53521</lat>
<lng>0.008812276</lng>
<osgr>TQ394837</osgr>
<postCode></postCode>
</camera>
<camera id="00001.02333" available="true">
<corridor></corridor>
<location>West Ham Lane/Densham Rd</location>
<currentView></currentView>
<file>0000102333.jpg</file>
<captureTime>2015-06-01T00:47:10Z</captureTime>
<easting>539241</easting>
<northing>183908</northing>
<lat>51.536907</lat>
<lng>0.006262651</lng>
<osgr>TQ392839</osgr>
<postCode></postCode>
</camera>
<camera id="00001.02335" available="true">
<corridor></corridor>
<location>Leyton Rd/Montfichet Rd/Penny Brookes St</location>
<currentView></currentView>
<file>0000102335.jpg</file>
<captureTime>2015-06-01T00:46:56Z</captureTime>
<easting>538714</easting>
<northing>184968</northing>
<lat>51.546562</lat>
<lng>-9.134882E-4</lng>
<osgr>TQ387850</osgr>
<postCode></postCode>
</camera>
<camera id="00001.02339" available="true">
<corridor></corridor>
<location>High Rd/Ruckholt Rd</location>
<currentView></currentView>
<file>0000102339.jpg</file>
<captureTime>2015-06-01T00:46:02Z</captureTime>
<easting>538251</easting>
<northing>186278</northing>
<lat>51.55845</lat>
<lng>-0.0070718466</lng>
<osgr>TQ383863</osgr>
<postCode></postCode>
</camera>
<camera id="00001.02342" available="true">
<corridor></corridor>
<location>Lea Bridge Rd/Markhouse Rd</location>
<currentView></currentView>
<file>0000102342.jpg</file>
<captureTime>2015-06-01T00:45:03Z</captureTime>
<easting>536954</easting>
<northing>187553</northing>
<lat>51.57022</lat>
<lng>-0.025273066</lng>
<osgr>TQ370876</osgr>
<postCode></postCode>
</camera>
<camera id="00001.02351" available="true">
<corridor></corridor>
<location>The Highway/Vaughan Way</location>
<currentView></currentView>
<file>0000102351.jpg</file>
<captureTime>2015-06-01T00:45:26Z</captureTime>
<easting>534205</easting>
<northing>180663</northing>
<lat>51.50897</lat>
<lng>-0.067538396</lng>
<osgr>TQ342807</osgr>
<postCode></postCode>
</camera>
<camera id="00001.02352" available="true">
<corridor></corridor>
<location>The Highway/Glammis Road</location>
<currentView></currentView>
<file>0000102352.jpg</file>
<captureTime>2015-06-01T00:46:35Z</captureTime>
<easting>535388</easting>
<northing>180775</northing>
<lat>51.509693</lat>
<lng>-0.050459445</lng>
<osgr>TQ354808</osgr>
<postCode></postCode>
</camera>
<camera id="00001.02414" available="true">
<corridor></corridor>
<location>A12 Eastern Av/Beehive Lane</location>
<currentView></currentView>
<file>0000102414.jpg</file>
<captureTime>2015-06-01T00:47:05Z</captureTime>
<easting>542888</easting>
<northing>188409</northing>
<lat>51.576443</lat>
<lng>0.060638044</lng>
<osgr>TQ429884</osgr>
<postCode></postCode>
</camera>
<camera id="00001.02415" available="true">
<corridor></corridor>
<location>A12/Gants Hill Roundabout</location>
<currentView></currentView>
<file>0000102415.jpg</file>
<captureTime>2015-06-01T00:46:33Z</captureTime>
<easting>543248</easting>
<northing>188417</northing>
<lat>51.576424</lat>
<lng>0.06583284</lng>
<osgr>TQ432884</osgr>
<postCode></postCode>
</camera>
<camera id="00001.02418" available="true">
<corridor></corridor>
<location>A12 Eastern Av/Brook Rd</location>
<currentView></currentView>
<file>0000102418.jpg</file>
<captureTime>2015-06-01T00:44:07Z</captureTime>
<easting>545180</easting>
<northing>188368</northing>
<lat>51.57549</lat>
<lng>0.093673415</lng>
<osgr>TQ452884</osgr>
<postCode></postCode>
</camera>
<camera id="00001.02420" available="true">
<corridor></corridor>
<location>A12 Eastern Av/Barley Lane</location>
<currentView></currentView>
<file>0000102420.jpg</file>
<captureTime>2015-06-01T00:45:32Z</captureTime>
<easting>546745</easting>
<northing>189176</northing>
<lat>51.582344</lat>
<lng>0.11657835</lng>
<osgr>TQ467892</osgr>
<postCode></postCode>
</camera>
<camera id="00001.02424" available="true">
<corridor></corridor>
<location>A12 Eastern Ave/Mawney Road</location>
<currentView></currentView>
<file>0000102424.jpg</file>
<captureTime>2015-06-01T00:44:59Z</captureTime>
<easting>550065</easting>
<northing>189163</northing>
<lat>51.581352</lat>
<lng>0.1644537</lng>
<osgr>TQ501892</osgr>
<postCode></postCode>
</camera>
<camera id="00001.02425" available="true">
<corridor></corridor>
<location>A12 Eastern Avenue/A125 North St</location>
<currentView></currentView>
<file>0000102425.jpg</file>
<captureTime>2015-06-01T00:45:06Z</captureTime>
<easting>550650</easting>
<northing>189757</northing>
<lat>51.586533</lat>
<lng>0.17314494</lng>
<osgr>TQ507898</osgr>
<postCode></postCode>
</camera>
<camera id="00001.02431" available="true">
<corridor></corridor>
<location>A12 Eastern Ave/Heath Drive</location>
<currentView></currentView>
<file>0000102431.jpg</file>
<captureTime>2015-06-01T00:44:59Z</captureTime>
<easting>552229</easting>
<northing>190802</northing>
<lat>51.5955</lat>
<lng>0.19637164</lng>
<osgr>TQ522908</osgr>
<postCode></postCode>
</camera>
<camera id="00001.02453" available="true">
<corridor></corridor>
<location>A127/Squirrels Heath Drive</location>
<currentView></currentView>
<file>0000102453.jpg</file>
<captureTime>2015-06-01T00:46:04Z</captureTime>
<easting>554209</easting>
<northing>189900</northing>
<lat>51.586857</lat>
<lng>0.22453815</lng>
<osgr>TQ542899</osgr>
<postCode></postCode>
</camera>
<camera id="00001.02500" available="true">
<corridor></corridor>
<location>Victoria Embkmt/Temple Place</location>
<currentView></currentView>
<file>0000102500.jpg</file>
<captureTime>2015-06-01T00:46:59Z</captureTime>
<easting>530898</easting>
<northing>180774</northing>
<lat>51.51074</lat>
<lng>-0.11512167</lng>
<osgr>TQ309808</osgr>
<postCode></postCode>
</camera>
<camera id="00001.02645" available="true">
<corridor></corridor>
<location>Ram St/Barchard St</location>
<currentView></currentView>
<file>0000102645.jpg</file>
<captureTime>2015-06-01T00:46:53Z</captureTime>
<easting>525706</easting>
<northing>174806</northing>
<lat>51.458282</lat>
<lng>-0.1920207</lng>
<osgr>TQ257748</osgr>
<postCode></postCode>
</camera>
<camera id="00001.02646" available="true">
<corridor></corridor>
<location>Armoury Wy/Wandsworth Plain</location>
<currentView></currentView>
<file>0000102646.jpg</file>
<captureTime>2015-06-01T00:44:54Z</captureTime>
<easting>525461</easting>
<northing>174833</northing>
<lat>51.45858</lat>
<lng>-0.19553566</lng>
<osgr>TQ255748</osgr>
<postCode></postCode>
</camera>
<camera id="00001.02900" available="false">
<corridor></corridor>
<location>East Cross Route/Tredeger Rd</location>
<currentView></currentView>
<file>0000102900.jpg</file>
<unavailabilityCause>In use keeping London moving</unavailabilityCause>
<captureTime>1970-01-01T00:00:00Z</captureTime>
<easting>537252</easting>
<northing>183486</northing>
<lat>51.533604</lat>
<lng>-0.022561533</lng>
<osgr>TQ373835</osgr>
<postCode></postCode>
</camera>
<camera id="00001.03005" available="true">
<corridor></corridor>
<location>Millennium Wy/Edmund Halley Wy</location>
<currentView></currentView>
<file>0000103005.jpg</file>
<captureTime>2015-06-01T00:45:33Z</captureTime>
<easting>539126</easting>
<northing>179558</northing>
<lat>51.49785</lat>
<lng>0.002889991</lng>
<osgr>TQ391796</osgr>
<postCode></postCode>
</camera>
<camera id="00001.03007" available="true">
<corridor></corridor>
<location>West Parkside/John Harrison Wy</location>
<currentView></currentView>
<file>0000103007.jpg</file>
<captureTime>2015-06-01T00:46:24Z</captureTime>
<easting>539756</easting>
<northing>179245</northing>
<lat>51.49488</lat>
<lng>0.011835997</lng>
<osgr>TQ398792</osgr>
<postCode></postCode>
</camera>
<camera id="00001.03105" available="true">
<corridor></corridor>
<location>Trafalgar Rd/Greenwich Pk St</location>
<currentView></currentView>
<file>0000103105.jpg</file>
<captureTime>2015-06-01T00:46:32Z</captureTime>
<easting>538959</easting>
<northing>177975</northing>
<lat>51.483665</lat>
<lng>-1.3688022E-4</lng>
<osgr>TQ390780</osgr>
<postCode></postCode>
</camera>
<camera id="00001.03111" available="true">
<corridor></corridor>
<location>Woolwich Rd/A102 Flyover</location>
<currentView></currentView>
<file>0000103111.jpg</file>
<captureTime>2015-06-01T00:45:00Z</captureTime>
<easting>540137</easting>
<northing>178303</northing>
<lat>51.48632</lat>
<lng>0.016947081</lng>
<osgr>TQ401783</osgr>
<postCode></postCode>
</camera>
<camera id="00001.03115" available="true">
<corridor></corridor>
<location>Woolwich Rd/Charlton Church Lane</location>
<currentView></currentView>
<file>0000103115.jpg</file>
<captureTime>2015-06-01T00:45:40Z</captureTime>
<easting>541115</easting>
<northing>178497</northing>
<lat>51.487823</lat>
<lng>0.031100724</lng>
<osgr>TQ411785</osgr>
<postCode></postCode>
</camera>
<camera id="00001.03118" available="false">
<corridor></corridor>
<location>Woolich Rd/Warspite Rd</location>
<currentView></currentView>
<file>0000103118.jpg</file>
<unavailabilityCause>In use keeping London moving</unavailabilityCause>
<captureTime>1970-01-01T00:00:00Z</captureTime>
<easting>542093</easting>
<northing>179044</northing>
<lat>51.492493</lat>
<lng>0.045397226</lng>
<osgr>TQ421790</osgr>
<postCode></postCode>
</camera>
<camera id="00001.03125" available="true">
<corridor></corridor>
<location>Pettman Crescent/Western Way</location>
<currentView></currentView>
<file>0000103125.jpg</file>
<captureTime>2015-06-01T00:45:35Z</captureTime>
<easting>544916</easting>
<northing>179141</northing>
<lat>51.49265</lat>
<lng>0.08607215</lng>
<osgr>TQ449791</osgr>
<postCode></postCode>
</camera>
<camera id="00001.03205" available="true">
<corridor></corridor>
<location>Shooters Hill Rd/Charlton Pk Ln</location>
<currentView></currentView>
<file>0000103205.jpg</file>
<captureTime>2015-06-01T00:46:53Z</captureTime>
<easting>541618</easting>
<northing>177007</northing>
<lat>51.474308</lat>
<lng>0.03774358</lng>
<osgr>TQ416770</osgr>
<postCode></postCode>
</camera>
<camera id="00001.03220" available="true">
<corridor></corridor>
<location>Watling St/Gravel Hill</location>
<currentView></currentView>
<file>0000103220.jpg</file>
<captureTime>2015-06-01T00:46:36Z</captureTime>
<easting>549685</easting>
<northing>175097</northing>
<lat>51.45507</lat>
<lng>0.15300435</lng>
<osgr>TQ497751</osgr>
<postCode></postCode>
</camera>
<camera id="00001.03223" available="true">
<corridor></corridor>
<location>Crayford Rd/Crayford Way</location>
<currentView></currentView>
<file>0000103223.jpg</file>
<captureTime>2015-06-01T00:46:12Z</captureTime>
<easting>551485</easting>
<northing>174763</northing>
<lat>51.45159</lat>
<lng>0.1787484</lng>
<osgr>TQ515748</osgr>
<postCode></postCode>
</camera>
<camera id="00001.03488" available="true">
<corridor></corridor>
<location>Tower Bridge Rd/Rothsay St</location>
<currentView></currentView>
<file>0000103488.jpg</file>
<captureTime>2015-06-01T00:45:25Z</captureTime>
<easting>533172</easting>
<northing>179199</northing>
<lat>51.496056</lat>
<lng>-0.08296671</lng>
<osgr>TQ332792</osgr>
<postCode></postCode>
</camera>
<camera id="00001.03490" available="true">
<corridor></corridor>
<location>Twr Brdge Rd/Grange Rd</location>
<currentView></currentView>
<file>0000103490.jpg</file>
<captureTime>2015-06-01T00:45:27Z</captureTime>
<easting>533246</easting>
<northing>179282</northing>
<lat>51.496784</lat>
<lng>-0.08187003</lng>
<osgr>TQ332793</osgr>
<postCode></postCode>
</camera>
<camera id="00001.03493" available="true">
<corridor></corridor>
<location>Tower Bridge Rd/Grange Walk</location>
<currentView></currentView>
<file>0000103493.jpg</file>
<captureTime>2015-06-01T00:46:59Z</captureTime>
<easting>533362</easting>
<northing>179348</northing>
<lat>51.49735</lat>
<lng>-0.08017505</lng>
<osgr>TQ334793</osgr>
<postCode></postCode>
</camera>
<camera id="00001.03500" available="false">
<corridor></corridor>
<location>Tower Bridge App./East Smithfield</location>
<currentView></currentView>
<file>0000103500.jpg</file>
<unavailabilityCause>In use keeping London moving</unavailabilityCause>
<captureTime>1970-01-01T00:00:00Z</captureTime>
<easting>533779</easting>
<northing>180656</northing>
<lat>51.509007</lat>
<lng>-0.0736758</lng>
<osgr>TQ338807</osgr>
<postCode></postCode>
</camera>
<camera id="00001.03505" available="true">
<corridor></corridor>
<location>Tooley St/Abbots Lane</location>
<currentView></currentView>
<file>0000103505.jpg</file>
<captureTime>2015-06-01T00:46:54Z</captureTime>
<easting>533261</easting>
<northing>180069</northing>
<lat>51.503853</lat>
<lng>-0.08135707</lng>
<osgr>TQ333801</osgr>
<postCode></postCode>
</camera>
<camera id="00001.03506" available="true">
<corridor></corridor>
<location>Tooley St/Boss St</location>
<currentView></currentView>
<file>0000103506.jpg</file>
<captureTime>2015-06-01T00:47:08Z</captureTime>
<easting>533582</easting>
<northing>179868</northing>
<lat>51.50197</lat>
<lng>-0.076810956</lng>
<osgr>TQ336799</osgr>
<postCode></postCode>
</camera>
<camera id="00001.03507" available="true">
<corridor></corridor>
<location>Tooley St/Battle Brdg Ln</location>
<currentView></currentView>
<file>0000103507.jpg</file>
<captureTime>2015-06-01T00:46:11Z</captureTime>
<easting>533098</easting>
<northing>180163</northing>
<lat>51.504734</lat>
<lng>-0.083668716</lng>
<osgr>TQ331802</osgr>
<postCode></postCode>
</camera>
<camera id="00001.03540" available="true">
<corridor></corridor>
<location>Tooley St/Jamaica Rd</location>
<currentView></currentView>
<file>0000103540.jpg</file>
<captureTime>2015-06-01T00:45:41Z</captureTime>
<easting>533750</easting>
<northing>179712</northing>
<lat>51.50053</lat>
<lng>-0.07445108</lng>
<osgr>TQ338797</osgr>
<postCode></postCode>
</camera>
<camera id="00001.03550" available="true">
<corridor></corridor>
<location>Jamaica Rd W of Abbey St</location>
<currentView></currentView>
<file>0000103550.jpg</file>
<captureTime>2015-06-01T00:46:14Z</captureTime>
<easting>534040</easting>
<northing>179545</northing>
<lat>51.49896</lat>
<lng>-0.070339</lng>
<osgr>TQ340795</osgr>
<postCode></postCode>
</camera>
<camera id="00001.03551" available="true">
<corridor></corridor>
<location>Jamaica Rd E of Abbey St</location>
<currentView></currentView>
<file>0000103551.jpg</file>
<captureTime>2015-06-01T00:45:51Z</captureTime>
<easting>534090</easting>
<northing>179492</northing>
<lat>51.49847</lat>
<lng>-0.06963924</lng>
<osgr>TQ341795</osgr>
<postCode></postCode>
</camera>
<camera id="00001.03552" available="false">
<corridor></corridor>
<location>Jamaica Rd/Southwark Pk</location>
<currentView></currentView>
<file>0000103552.jpg</file>
<unavailabilityCause>In use keeping London moving</unavailabilityCause>
<captureTime>1970-01-01T00:00:00Z</captureTime>
<easting>534733</easting>
<northing>179518</northing>
<lat>51.49855</lat>
<lng>-0.060371783</lng>
<osgr>TQ347795</osgr>
<postCode></postCode>
</camera>
<camera id="00001.03553" available="false">
<corridor></corridor>
<location>Jamaica Rd W of West Ln</location>
<currentView></currentView>
<file>0000103553.jpg</file>
<unavailabilityCause>In use keeping London moving</unavailabilityCause>
<captureTime>1970-01-01T00:00:00Z</captureTime>
<easting>534682</easting>
<northing>179523</northing>
<lat>51.498608</lat>
<lng>-0.061104145</lng>
<osgr>TQ347795</osgr>
<postCode></postCode>
</camera>
<camera id="00001.03555" available="false">
<corridor></corridor>
<location>Jamaica Rd W of Lower Rd</location>
<currentView></currentView>
<file>0000103555.jpg</file>
<unavailabilityCause>In use keeping London moving</unavailabilityCause>
<captureTime>1970-01-01T00:00:00Z</captureTime>
<easting>535012</easting>
<northing>179586</northing>
<lat>51.499096</lat>
<lng>-0.056328908</lng>
<osgr>TQ350796</osgr>
<postCode></postCode>
</camera>
<camera id="00001.03556" available="true">
<corridor></corridor>
<location>Evelyn Street / Bestwood St</location>
<currentView></currentView>
<file>0000103556.jpg</file>
<captureTime>2015-06-01T00:45:41Z</captureTime>
<easting>536014</easting>
<northing>178598</northing>
<lat>51.48998</lat>
<lng>-0.042283077</lng>
<osgr>TQ360786</osgr>
<postCode></postCode>
</camera>
<camera id="00001.03590" available="true">
<corridor></corridor>
<location>Kings X Rd / Wharton St</location>
<currentView></currentView>
<file>0000103590.jpg</file>
<captureTime>2015-06-01T00:46:01Z</captureTime>
<easting>530825</easting>
<northing>182653</northing>
<lat>51.52764</lat>
<lng>-0.115476094</lng>
<osgr>TQ308827</osgr>
<postCode></postCode>
</camera>
<camera id="00001.03591" available="true">
<corridor></corridor>
<location>Kings X Rd / Swinton St</location>
<currentView></currentView>
<file>0000103591.jpg</file>
<captureTime>2015-06-01T00:46:52Z</captureTime>
<easting>530803</easting>
<northing>182850</northing>
<lat>51.52942</lat>
<lng>-0.11571996</lng>
<osgr>TQ308829</osgr>
<postCode></postCode>
</camera>
<camera id="00001.03600" available="true">
<corridor></corridor>
<location>Farringdon Rd opp Ray St</location>
<currentView></currentView>
<file>0000103600.jpg</file>
<captureTime>2015-06-01T00:44:59Z</captureTime>
<easting>531362</easting>
<northing>182167</northing>
<lat>51.52315</lat>
<lng>-0.10792058</lng>
<osgr>TQ314822</osgr>
<postCode></postCode>
</camera>
<camera id="00001.03602" available="true">
<corridor></corridor>
<location>Blackfriars Rd/Stamford St</location>
<currentView></currentView>
<file>0000103602.jpg</file>
<captureTime>2015-06-01T00:46:52Z</captureTime>
<easting>531640</easting>
<northing>180342</northing>
<lat>51.506683</lat>
<lng>-0.104596764</lng>
<osgr>TQ316803</osgr>
<postCode></postCode>
</camera>
<camera id="00001.03603" available="true">
<corridor></corridor>
<location>Elephant &amp;amp; Castle/New Kent Rd</location>
<currentView></currentView>
<file>0000103603.jpg</file>
<captureTime>2015-06-01T00:46:23Z</captureTime>
<easting>531997</easting>
<northing>179027</northing>
<lat>51.494785</lat>
<lng>-0.09994741</lng>
<osgr>TQ320790</osgr>
<postCode></postCode>
</camera>
<camera id="00001.03604" available="true">
<corridor></corridor>
<location>Elephant &amp;amp; Castle/Walworth Rd</location>
<currentView></currentView>
<file>0000103604.jpg</file>
<captureTime>2015-06-01T00:46:04Z</captureTime>
<easting>531994</easting>
<northing>178991</northing>
<lat>51.49446</lat>
<lng>-0.100004055</lng>
<osgr>TQ320790</osgr>
<postCode></postCode>
</camera>
<camera id="00001.03606" available="true">
<corridor></corridor>
<location>New Kent Rd / Balfour St</location>
<currentView></currentView>
<file>0000103606.jpg</file>
<captureTime>2015-06-01T00:46:49Z</captureTime>
<easting>532579</easting>
<northing>178963</northing>
<lat>51.494072</lat>
<lng>-0.091592655</lng>
<osgr>TQ326790</osgr>
<postCode></postCode>
</camera>
<camera id="00001.03608" available="true">
<corridor></corridor>
<location>Farringdon Rd/Cowcross St</location>
<currentView></currentView>
<file>0000103608.jpg</file>
<captureTime>2015-06-01T00:45:31Z</captureTime>
<easting>531514</easting>
<northing>181815</northing>
<lat>51.51995</lat>
<lng>-0.10586219</lng>
<osgr>TQ315818</osgr>
<postCode></postCode>
</camera>
<camera id="00001.03609" available="true">
<corridor></corridor>
<location>Blackfriars Rd/Dolben St</location>
<currentView></currentView>
<file>0000103609.jpg</file>
<captureTime>2015-06-01T00:44:56Z</captureTime>
<easting>531641</easting>
<northing>180140</northing>
<lat>51.50487</lat>
<lng>-0.10465769</lng>
<osgr>TQ316801</osgr>
<postCode></postCode>
</camera>
<camera id="00001.03610" available="true">
<corridor></corridor>
<location>Blackfriars Rd/Pocock St</location>
<currentView></currentView>
<file>0000103610.jpg</file>
<captureTime>2015-06-01T00:45:42Z</captureTime>
<easting>531660</easting>
<northing>179797</northing>
<lat>51.50178</lat>
<lng>-0.104512006</lng>
<osgr>TQ317798</osgr>
<postCode></postCode>
</camera>
<camera id="00001.03611" available="true">
<corridor></corridor>
<location>London Rd/Thomas Doyle St</location>
<currentView></currentView>
<file>0000103611.jpg</file>
<captureTime>2015-06-01T00:46:33Z</captureTime>
<easting>531723</easting>
<northing>179376</northing>
<lat>51.497986</lat>
<lng>-0.10376193</lng>
<osgr>TQ317794</osgr>
<postCode></postCode>
</camera>
<camera id="00001.03612" available="true">
<corridor></corridor>
<location>St Georges Rd/Hayles St</location>
<currentView></currentView>
<file>0000103612.jpg</file>
<captureTime>2015-06-01T00:45:39Z</captureTime>
<easting>531742</easting>
<northing>179137</northing>
<lat>51.495834</lat>
<lng>-0.10357752</lng>
<osgr>TQ317791</osgr>
<postCode></postCode>
</camera>
<camera id="00001.03642" available="true">
<corridor></corridor>
<location>Old Kent Rd/Penry St</location>
<currentView></currentView>
<file>0000103642.jpg</file>
<captureTime>2015-06-01T00:46:56Z</captureTime>
<easting>533402</easting>
<northing>178535</northing>
<lat>51.490032</lat>
<lng>-0.07990619</lng>
<osgr>TQ334785</osgr>
<postCode></postCode>
</camera>
<camera id="00001.03643" available="true">
<corridor></corridor>
<location>Old Kent Rd/Surrey Square</location>
<currentView></currentView>
<file>0000103643.jpg</file>
<captureTime>2015-06-01T00:45:00Z</captureTime>
<easting>533397</easting>
<northing>178516</northing>
<lat>51.489864</lat>
<lng>-0.079985335</lng>
<osgr>TQ334785</osgr>
<postCode></postCode>
</camera>
<camera id="00001.03651" available="false">
<corridor></corridor>
<location>Old Kent Rd/Preston Cls</location>
<currentView></currentView>
<file>0000103651.jpg</file>
<unavailabilityCause>In use keeping London moving</unavailabilityCause>
<captureTime>1970-01-01T00:00:00Z</captureTime>
<easting>533135</easting>
<northing>178802</northing>
<lat>51.492496</lat>
<lng>-0.083649024</lng>
<osgr>TQ331788</osgr>
<postCode></postCode>
</camera>
<camera id="00001.03652" available="true">
<corridor></corridor>
<location>Old Kent Rd/Hendre Rd</location>
<currentView></currentView>
<file>0000103652.jpg</file>
<captureTime>2015-06-01T00:45:26Z</captureTime>
<easting>533275</easting>
<northing>178673</northing>
<lat>51.491302</lat>
<lng>-0.08168229</lng>
<osgr>TQ333787</osgr>
<postCode></postCode>
</camera>
<camera id="00001.03653" available="true">
<corridor></corridor>
<location>Old Kent Rd/Albany Rd</location>
<currentView></currentView>
<file>0000103653.jpg</file>
<captureTime>2015-06-01T00:41:09Z</captureTime>
<easting>533631</easting>
<northing>178328</northing>
<lat>51.48812</lat>
<lng>-0.076688044</lng>
<osgr>TQ336783</osgr>
<postCode></postCode>
</camera>
<camera id="00001.03654" available="true">
<corridor></corridor>
<location>Old Kent Rd/Glengall Rd</location>
<currentView></currentView>
<file>0000103654.jpg</file>
<captureTime>2015-06-01T00:45:24Z</captureTime>
<easting>533955</easting>
<northing>178109</northing>
<lat>51.486076</lat>
<lng>-0.072107315</lng>
<osgr>TQ340781</osgr>
<postCode></postCode>
</camera>
<camera id="00001.03656" available="true">
<corridor></corridor>
<location>Old Kent Rd/St James&amp;#039; Rd</location>
<currentView></currentView>
<file>0000103656.jpg</file>
<captureTime>2015-06-01T00:44:55Z</captureTime>
<easting>534357</easting>
<northing>177878</northing>
<lat>51.483902</lat>
<lng>-0.06640892</lng>
<osgr>TQ344779</osgr>
<postCode></postCode>
</camera>
<camera id="00001.03657" available="false">
<corridor></corridor>
<location>Old Kent Rd/Peckham Pk R</location>
<currentView></currentView>
<file>0000103657.jpg</file>
<unavailabilityCause>In use keeping London moving</unavailabilityCause>
<captureTime>1970-01-01T00:00:00Z</captureTime>
<easting>534511</easting>
<northing>177780</northing>
<lat>51.482986</lat>
<lng>-0.06422971</lng>
<osgr>TQ345778</osgr>
<postCode></postCode>
</camera>
<camera id="00001.03658" available="true">
<corridor></corridor>
<location>Old Kent Rd/Asylum Rd</location>
<currentView></currentView>
<file>0000103658.jpg</file>
<captureTime>2015-06-01T00:46:50Z</captureTime>
<easting>534852</easting>
<northing>177511</northing>
<lat>51.480488</lat>
<lng>-0.059424482</lng>
<osgr>TQ349775</osgr>
<postCode></postCode>
</camera>
<camera id="00001.03659" available="true">
<corridor></corridor>
<location>A2 New Cross Rd/Billington Rd</location>
<currentView></currentView>
<file>0000103659.jpg</file>
<captureTime>2015-06-01T00:45:17Z</captureTime>
<easting>535724</easting>
<northing>177002</northing>
<lat>51.475704</lat>
<lng>-0.04707035</lng>
<osgr>TQ357770</osgr>
<postCode></postCode>
</camera>
<camera id="00001.03660" available="true">
<corridor></corridor>
<location>A2 New Cross Rd/Besson St</location>
<currentView></currentView>
<file>0000103660.jpg</file>
<captureTime>2015-06-01T00:44:55Z</captureTime>
<easting>535720</easting>
<northing>176953</northing>
<lat>51.475266</lat>
<lng>-0.04714672</lng>
<osgr>TQ357770</osgr>
<postCode></postCode>
</camera>
<camera id="00001.03662" available="true">
<corridor></corridor>
<location>A2 New Cross Rd/Nettleton Rd</location>
<currentView></currentView>
<file>0000103662.jpg</file>
<captureTime>2015-06-01T00:40:51Z</captureTime>
<easting>535991</easting>
<northing>176862</northing>
<lat>51.474384</lat>
<lng>-0.043282032</lng>
<osgr>TQ360769</osgr>
<postCode></postCode>
</camera>
<camera id="00001.03663" available="true">
<corridor></corridor>
<location>A2 New Cross Rd/St James</location>
<currentView></currentView>
<file>0000103663.jpg</file>
<captureTime>2015-06-01T00:40:45Z</captureTime>
<easting>536246</easting>
<northing>176938</northing>
<lat>51.475006</lat>
<lng>-0.03958339</lng>
<osgr>TQ362769</osgr>
<postCode></postCode>
</camera>
<camera id="00001.03664" available="true">
<corridor></corridor>
<location>A2 New Cross Rd/Florence Rd</location>
<currentView></currentView>
<file>0000103664.jpg</file>
<captureTime>2015-06-01T00:46:59Z</captureTime>
<easting>536981</easting>
<northing>177007</northing>
<lat>51.47545</lat>
<lng>-0.028980177</lng>
<osgr>TQ370770</osgr>
<postCode></postCode>
</camera>
<camera id="00001.03665" available="true">
<corridor></corridor>
<location>Deptford Broadway/Deptford Ch St</location>
<currentView></currentView>
<file>0000103665.jpg</file>
<captureTime>2015-06-01T00:45:48Z</captureTime>
<easting>537314</easting>
<northing>176931</northing>
<lat>51.474686</lat>
<lng>-0.024217864</lng>
<osgr>TQ373769</osgr>
<postCode></postCode>
</camera>
<camera id="00001.03666" available="true">
<corridor></corridor>
<location>Peckham Rd E of Vestry Rd</location>
<currentView></currentView>
<file>0000103666.jpg</file>
<captureTime>2015-06-01T00:46:05Z</captureTime>
<easting>533194</easting>
<northing>176708</northing>
<lat>51.473663</lat>
<lng>-0.08358875</lng>
<osgr>TQ332767</osgr>
<postCode></postCode>
</camera>
<camera id="00001.03667" available="false">
<corridor></corridor>
<location>Old Kent Rd/Humphrey St</location>
<currentView></currentView>
<file>0000103667.jpg</file>
<unavailabilityCause>In use keeping London moving</unavailabilityCause>
<captureTime>1970-01-01T00:00:00Z</captureTime>
<easting>533647</easting>
<northing>178348</northing>
<lat>51.488297</lat>
<lng>-0.07645017</lng>
<osgr>TQ336783</osgr>
<postCode></postCode>
</camera>
<camera id="00001.03668" available="true">
<corridor></corridor>
<location>Peckham Hg St wof Clayton Rd</location>
<currentView></currentView>
<file>0000103668.jpg</file>
<captureTime>2015-06-01T00:44:59Z</captureTime>
<easting>534380</easting>
<northing>176761</northing>
<lat>51.47386</lat>
<lng>-0.066502444</lng>
<osgr>TQ344768</osgr>
<postCode></postCode>
</camera>
<camera id="00001.03671" available="true">
<corridor></corridor>
<location>A2 Blackheath Hill/Plumbridge St</location>
<currentView></currentView>
<file>0000103671.jpg</file>
<captureTime>2015-06-01T00:44:08Z</captureTime>
<easting>537978</easting>
<northing>176744</northing>
<lat>51.472843</lat>
<lng>-0.014736166</lng>
<osgr>TQ380767</osgr>
<postCode></postCode>
</camera>
<camera id="00001.03672" available="false">
<corridor></corridor>
<location>A2 New Cross Rd/Avonley Rd</location>
<currentView></currentView>
<file>0000103672.jpg</file>
<unavailabilityCause>In use keeping London moving</unavailabilityCause>
<captureTime>1970-01-01T00:00:00Z</captureTime>
<easting>535386</easting>
<northing>177223</northing>
<lat>51.47777</lat>
<lng>-0.051849607</lng>
<osgr>TQ354772</osgr>
<postCode></postCode>
</camera>
<camera id="00001.03673" available="true">
<corridor></corridor>
<location>A2 New Cross R/Harts Ln</location>
<currentView></currentView>
<file>0000103673.jpg</file>
<captureTime>2015-06-01T00:46:17Z</captureTime>
<easting>536070</easting>
<northing>176882</northing>
<lat>51.474545</lat>
<lng>-0.042137552</lng>
<osgr>TQ361769</osgr>
<postCode></postCode>
</camera>
<camera id="00001.03674" available="true">
<corridor></corridor>
<location>A2 New Cross Rd/Lewisham Way</location>
<currentView></currentView>
<file>0000103674.jpg</file>
<captureTime>2015-06-01T00:45:30Z</captureTime>
<easting>536475</easting>
<northing>177026</northing>
<lat>51.475742</lat>
<lng>-0.036254156</lng>
<osgr>TQ365770</osgr>
<postCode></postCode>
</camera>
<camera id="00001.03675" available="true">
<corridor></corridor>
<location>Blackheath Rd/Greenwich High Rd</location>
<currentView></currentView>
<file>0000103675.jpg</file>
<captureTime>2015-06-01T00:45:28Z</captureTime>
<easting>537558</easting>
<northing>176879</northing>
<lat>51.47416</lat>
<lng>-0.020727033</lng>
<osgr>TQ376769</osgr>
<postCode></postCode>
</camera>
<camera id="00001.03680" available="true">
<corridor></corridor>
<location>Shooters Hill Rd/Charlton Way</location>
<currentView></currentView>
<file>0000103680.jpg</file>
<captureTime>2015-06-01T00:46:12Z</captureTime>
<easting>539021</easting>
<northing>176671</northing>
<lat>51.47193</lat>
<lng>2.4270378E-4</lng>
<osgr>TQ390767</osgr>
<postCode></postCode>
</camera>
<camera id="00001.03700" available="true">
<corridor></corridor>
<location>A20 Lewisham Way/Parkfield Rd</location>
<currentView></currentView>
<file>0000103700.jpg</file>
<captureTime>2015-06-01T00:44:31Z</captureTime>
<easting>536595</easting>
<northing>176886</northing>
<lat>51.474453</lat>
<lng>-0.03458143</lng>
<osgr>TQ366769</osgr>
<postCode></postCode>
</camera>
<camera id="00001.03701" available="true">
<corridor></corridor>
<location>A20 Lee High Rd/Lampmead Rd</location>
<currentView></currentView>
<file>0000103701.jpg</file>
<captureTime>2015-06-01T00:44:53Z</captureTime>
<easting>539679</easting>
<northing>175044</northing>
<lat>51.45715</lat>
<lng>0.00906804</lng>
<osgr>TQ397750</osgr>
<postCode></postCode>
</camera>
<camera id="00001.03702" available="true">
<corridor></corridor>
<location>A20 Lee High Rd/Belmont Hill</location>
<currentView></currentView>
<file>0000103702.jpg</file>
<captureTime>2015-06-01T00:46:48Z</captureTime>
<easting>538415</easting>
<northing>175595</northing>
<lat>51.46241</lat>
<lng>-0.008897767</lng>
<osgr>TQ384756</osgr>
<postCode></postCode>
</camera>
<camera id="00001.03703" available="true">
<corridor></corridor>
<location>A20 Lee High Rd/Belmont Park</location>
<currentView></currentView>
<file>0000103703.jpg</file>
<captureTime>2015-06-01T00:45:01Z</captureTime>
<easting>538762</easting>
<northing>175318</northing>
<lat>51.459835</lat>
<lng>-0.0040145786</lng>
<osgr>TQ388753</osgr>
<postCode></postCode>
</camera>
<camera id="00001.03704" available="true">
<corridor></corridor>
<location>A20 Lee High Rd/Marischal Rd</location>
<currentView></currentView>
<file>0000103704.jpg</file>
<captureTime>2015-06-01T00:45:08Z</captureTime>
<easting>538627</easting>
<northing>175472</northing>
<lat>51.461254</lat>
<lng>-0.0058962028</lng>
<osgr>TQ386755</osgr>
<postCode></postCode>
</camera>
<camera id="00001.03705" available="true">
<corridor></corridor>
<location>Lewisham Way/Florence Road</location>
<currentView></currentView>
<file>0000103705.jpg</file>
<captureTime>2015-06-01T00:45:58Z</captureTime>
<easting>536841</easting>
<northing>176639</northing>
<lat>51.472176</lat>
<lng>-0.03113716</lng>
<osgr>TQ368766</osgr>
<postCode></postCode>
</camera>
<camera id="00001.03706" available="true">
<corridor></corridor>
<location>Loampit Vale/Thurston Rd</location>
<currentView></currentView>
<file>0000103706.jpg</file>
<captureTime>2015-06-01T00:46:42Z</captureTime>
<easting>537970</easting>
<northing>175811</northing>
<lat>51.464462</lat>
<lng>-0.015215168</lng>
<osgr>TQ380758</osgr>
<postCode></postCode>
</camera>
<camera id="00001.03707" available="true">
<corridor></corridor>
<location>Lewisham High St/Rennell St</location>
<currentView></currentView>
<file>0000103707.jpg</file>
<captureTime>2015-06-01T00:45:25Z</captureTime>
<easting>538281</easting>
<northing>175750</northing>
<lat>51.463837</lat>
<lng>-0.010764872</lng>
<osgr>TQ383758</osgr>
<postCode></postCode>
</camera>
<camera id="00001.03708" available="true">
<corridor></corridor>
<location>Lee High Rd/Old Rd</location>
<currentView></currentView>
<file>0000103708.jpg</file>
<captureTime>2015-06-01T00:46:13Z</captureTime>
<easting>539244</easting>
<northing>175192</northing>
<lat>51.458588</lat>
<lng>0.0028692856</lng>
<osgr>TQ392752</osgr>
<postCode></postCode>
</camera>
<camera id="00001.03712" available="true">
<corridor></corridor>
<location>Eltham Rd/Leyland Rd</location>
<currentView></currentView>
<file>0000103712.jpg</file>
<captureTime>2015-06-01T00:46:40Z</captureTime>
<easting>539957</easting>
<northing>174917</northing>
<lat>51.45594</lat>
<lng>0.01301652</lng>
<osgr>TQ400749</osgr>
<postCode></postCode>
</camera>
<camera id="00001.03718" available="true">
<corridor></corridor>
<location>Eltham Rd/Sidcup Rd</location>
<currentView></currentView>
<file>0000103718.jpg</file>
<captureTime>2015-06-01T00:44:50Z</captureTime>
<easting>540976</easting>
<northing>174635</northing>
<lat>51.45315</lat>
<lng>0.027560798</lng>
<osgr>TQ410746</osgr>
<postCode></postCode>
</camera>
<camera id="00001.03720" available="true">
<corridor></corridor>
<location>A205 Westhorne Av/Sidcup Rd</location>
<currentView></currentView>
<file>0000103720.jpg</file>
<captureTime>2015-06-01T00:44:50Z</captureTime>
<easting>541137</easting>
<northing>174294</northing>
<lat>51.45005</lat>
<lng>0.029740442</lng>
<osgr>TQ411743</osgr>
<postCode></postCode>
</camera>
<camera id="00001.03721" available="true">
<corridor></corridor>
<location>Court Rd/Sidcup Rd</location>
<currentView></currentView>
<file>0000103721.jpg</file>
<captureTime>2015-06-01T00:44:51Z</captureTime>
<easting>542584</easting>
<northing>173113</northing>
<lat>51.439075</lat>
<lng>0.050074738</lng>
<osgr>TQ426731</osgr>
<postCode></postCode>
</camera>
<camera id="00001.03747" available="true">
<corridor></corridor>
<location>Grand Depot Rd/John Wilson St</location>
<currentView></currentView>
<file>0000103747.jpg</file>
<captureTime>2015-06-01T00:44:58Z</captureTime>
<easting>543367</easting>
<northing>178520</northing>
<lat>51.48746</lat>
<lng>0.06352315</lng>
<osgr>TQ434785</osgr>
<postCode></postCode>
</camera>
<camera id="00001.03748" available="true">
<corridor></corridor>
<location>A205 Academy Rd/Shooters Hill</location>
<currentView></currentView>
<file>0000103748.jpg</file>
<captureTime>2015-06-01T00:46:21Z</captureTime>
<easting>542839</easting>
<northing>176695</northing>
<lat>51.471195</lat>
<lng>0.055186316</lng>
<osgr>TQ428767</osgr>
<postCode></postCode>
</camera>
<camera id="00001.03749" available="false">
<corridor></corridor>
<location>A205 Woolwich Common Rd/N&amp;#039;gale pl</location>
<currentView></currentView>
<file>0000103749.jpg</file>
<unavailabilityCause>In use keeping London moving</unavailabilityCause>
<captureTime>1970-01-01T00:00:00Z</captureTime>
<easting>543279</easting>
<northing>177942</northing>
<lat>51.482292</lat>
<lng>0.062022246</lng>
<osgr>TQ433779</osgr>
<postCode></postCode>
</camera>
<camera id="00001.03750" available="true">
<corridor></corridor>
<location>A205 north of Broad Walk</location>
<currentView></currentView>
<file>0000103750.jpg</file>
<captureTime>2015-06-01T00:45:00Z</captureTime>
<easting>542789</easting>
<northing>176503</northing>
<lat>51.469482</lat>
<lng>0.054389417</lng>
<osgr>TQ428765</osgr>
<postCode></postCode>
</camera>
<camera id="00001.03751" available="true">
<corridor></corridor>
<location>A205 Brownhill Rd/Plassey Rd</location>
<currentView></currentView>
<file>0000103751.jpg</file>
<captureTime>2015-06-01T00:44:55Z</captureTime>
<easting>537886</easting>
<northing>173740</northing>
<lat>51.44587</lat>
<lng>-0.017230235</lng>
<osgr>TQ379737</osgr>
<postCode></postCode>
</camera>
<camera id="00001.03752" available="true">
<corridor></corridor>
<location>Catford One Way/Rushey Green</location>
<currentView></currentView>
<file>0000103752.jpg</file>
<captureTime>2015-06-01T00:45:55Z</captureTime>
<easting>537688</easting>
<northing>173631</northing>
<lat>51.44494</lat>
<lng>-0.020119945</lng>
<osgr>TQ377736</osgr>
<postCode></postCode>
</camera>
<camera id="00001.03753" available="true">
<corridor></corridor>
<location>A205 / Catford Hill</location>
<currentView></currentView>
<file>0000103753.jpg</file>
<captureTime>2015-06-01T00:44:59Z</captureTime>
<easting>537106</easting>
<northing>173418</northing>
<lat>51.443165</lat>
<lng>-0.028571708</lng>
<osgr>TQ371734</osgr>
<postCode></postCode>
</camera>
<camera id="00001.03754" available="true">
<corridor></corridor>
<location>A205 W of Brockley Rise</location>
<currentView></currentView>
<file>0000103754.jpg</file>
<captureTime>2015-06-01T00:44:50Z</captureTime>
<easting>536087</easting>
<northing>173294</northing>
<lat>51.4423</lat>
<lng>-0.043272402</lng>
<osgr>TQ361733</osgr>
<postCode></postCode>
</camera>
<camera id="00001.03755" available="true">
<corridor></corridor>
<location>A205 Waldram Pk Rd/Westbourne Dr</location>
<currentView></currentView>
<file>0000103755.jpg</file>
<captureTime>2015-06-01T00:45:38Z</captureTime>
<easting>535587</easting>
<northing>173037</northing>
<lat>51.44011</lat>
<lng>-0.05056057</lng>
<osgr>TQ356730</osgr>
<postCode></postCode>
</camera>
<camera id="00001.03756" available="true">
<corridor></corridor>
<location>A205 London Rd/Dartmouth Rd</location>
<currentView></currentView>
<file>0000103756.jpg</file>
<captureTime>2015-06-01T00:45:38Z</captureTime>
<easting>535365</easting>
<northing>172910</northing>
<lat>51.43902</lat>
<lng>-0.053801224</lng>
<osgr>TQ354729</osgr>
<postCode></postCode>
</camera>
<camera id="00001.03757" available="true">
<corridor></corridor>
<location>A205 E of Sydenham Hill</location>
<currentView></currentView>
<file>0000103757.jpg</file>
<captureTime>2015-06-01T00:46:22Z</captureTime>
<easting>534678</easting>
<northing>173086</northing>
<lat>51.440765</lat>
<lng>-0.06361251</lng>
<osgr>TQ347731</osgr>
<postCode></postCode>
</camera>
<camera id="00001.03758" available="true">
<corridor></corridor>
<location>A205 Tulse Hill/ Thurlow Park Rd</location>
<currentView></currentView>
<file>0000103758.jpg</file>
<captureTime>2015-06-01T00:46:06Z</captureTime>
<easting>531709</easting>
<northing>173030</northing>
<lat>51.44096</lat>
<lng>-0.1063263</lng>
<osgr>TQ317730</osgr>
<postCode></postCode>
</camera>
<camera id="00001.03759" available="true">
<corridor></corridor>
<location>Christchurch Rd/Streatham Hill</location>
<currentView></currentView>
<file>0000103759.jpg</file>
<captureTime>2015-06-01T00:45:19Z</captureTime>
<easting>530455</easting>
<northing>173455</northing>
<lat>51.44507</lat>
<lng>-0.12420211</lng>
<osgr>TQ305735</osgr>
<postCode></postCode>
</camera>
<camera id="00001.03760" available="true">
<corridor></corridor>
<location>Shooters Hill Rd/P o wales Rd</location>
<currentView></currentView>
<file>0000103760.jpg</file>
<captureTime>2015-06-01T00:45:16Z</captureTime>
<easting>540072</easting>
<northing>176872</northing>
<lat>51.47348</lat>
<lng>0.015444546</lng>
<osgr>TQ401769</osgr>
<postCode></postCode>
</camera>
<camera id="00001.03761" available="true">
<corridor></corridor>
<location>Westhorn Av E of Burnt Ash Hill</location>
<currentView></currentView>
<file>0000103761.jpg</file>
<captureTime>2015-06-01T00:46:37Z</captureTime>
<easting>540130</easting>
<northing>173846</northing>
<lat>51.446274</lat>
<lng>0.015081017</lng>
<osgr>TQ401738</osgr>
<postCode></postCode>
</camera>
<camera id="00001.03762" available="true">
<corridor></corridor>
<location>A205 Christchurch Rd/A23 Brixton H</location>
<currentView></currentView>
<file>0000103762.jpg</file>
<captureTime>2015-06-01T00:45:13Z</captureTime>
<easting>530456</easting>
<northing>173467</northing>
<lat>51.445175</lat>
<lng>-0.12418331</lng>
<osgr>TQ305735</osgr>
<postCode></postCode>
</camera>
<camera id="00001.03763" available="true">
<corridor></corridor>
<location>Catford Hill/Dogget Rd</location>
<currentView></currentView>
<file>0000103763.jpg</file>
<captureTime>2015-06-01T00:44:58Z</captureTime>
<easting>537424</easting>
<northing>173584</northing>
<lat>51.44458</lat>
<lng>-0.023934565</lng>
<osgr>TQ374736</osgr>
<postCode></postCode>
</camera>
<camera id="00001.03764" available="true">
<corridor></corridor>
<location>A20 Sidcup Rd/Coyler Close</location>
<currentView></currentView>
<file>0000103764.jpg</file>
<captureTime>2015-06-01T00:44:49Z</captureTime>
<easting>543500</easting>
<northing>172697</northing>
<lat>51.435104</lat>
<lng>0.063076235</lng>
<osgr>TQ435727</osgr>
<postCode></postCode>
</camera>
<camera id="00001.03765" available="true">
<corridor></corridor>
<location>Stanstead Rd/Blythe Hill Lane</location>
<currentView></currentView>
<file>0000103765.jpg</file>
<captureTime>2015-06-01T00:45:43Z</captureTime>
<easting>536770</easting>
<northing>173296</northing>
<lat>51.44215</lat>
<lng>-0.03345041</lng>
<osgr>TQ368733</osgr>
<postCode></postCode>
</camera>
<camera id="00001.03766" available="true">
<corridor></corridor>
<location>A20 Sidcup Bypass/Perry St</location>
<currentView></currentView>
<file>0000103766.jpg</file>
<captureTime>2015-06-01T00:45:14Z</captureTime>
<easting>545996</easting>
<northing>170899</northing>
<lat>51.418312</lat>
<lng>0.098218806</lng>
<osgr>TQ460709</osgr>
<postCode></postCode>
</camera>
<camera id="00001.03767" available="true">
<corridor></corridor>
<location>A205/Verdant Lane</location>
<currentView></currentView>
<file>0000103767.jpg</file>
<captureTime>2015-06-01T00:45:57Z</captureTime>
<easting>539410</easting>
<northing>173705</northing>
<lat>51.445183</lat>
<lng>0.0046716277</lng>
<osgr>TQ394737</osgr>
<postCode></postCode>
</camera>
<camera id="00001.03768" available="true">
<corridor></corridor>
<location>A20 Sidcup Rd/County Gate</location>
<currentView></currentView>
<file>0000103768.jpg</file>
<captureTime>2015-06-01T00:45:45Z</captureTime>
<easting>544433</easting>
<northing>172373</northing>
<lat>51.431957</lat>
<lng>0.076357305</lng>
<osgr>TQ444724</osgr>
<postCode></postCode>
</camera>
<camera id="00001.03769" available="true">
<corridor></corridor>
<location>A20 Sidcup Bypass/Sevenoaks Way</location>
<currentView></currentView>
<file>0000103769.jpg</file>
<captureTime>2015-06-01T00:46:10Z</captureTime>
<easting>546986</easting>
<northing>170387</northing>
<lat>51.413456</lat>
<lng>0.112233706</lng>
<osgr>TQ470704</osgr>
<postCode></postCode>
</camera>
<camera id="00001.03770" available="true">
<corridor></corridor>
<location>A205 Poynders Rd/Kings Ave</location>
<currentView></currentView>
<file>0000103770.jpg</file>
<captureTime>2015-06-01T00:45:51Z</captureTime>
<easting>529869</easting>
<northing>173757</northing>
<lat>51.447918</lat>
<lng>-0.13251877</lng>
<osgr>TQ299738</osgr>
<postCode></postCode>
</camera>
<camera id="00001.03778" available="true">
<corridor></corridor>
<location>A205 Christchurch Rd/Norwood Rd</location>
<currentView></currentView>
<file>0000103778.jpg</file>
<captureTime>2015-06-01T00:46:38Z</captureTime>
<easting>531705</easting>
<northing>172954</northing>
<lat>51.440277</lat>
<lng>-0.10641207</lng>
<osgr>TQ317730</osgr>
<postCode></postCode>
</camera>
<camera id="00001.03800" available="true">
<corridor></corridor>
<location>A21 South of Ladywell Rd</location>
<currentView></currentView>
<file>0000103800.jpg</file>
<captureTime>2015-06-01T00:45:35Z</captureTime>
<easting>538038</easting>
<northing>174894</northing>
<lat>51.456203</lat>
<lng>-0.014594553</lng>
<osgr>TQ380749</osgr>
<postCode></postCode>
</camera>
<camera id="00001.03802" available="true">
<corridor></corridor>
<location>A21 North of Lewisham Pk</location>
<currentView></currentView>
<file>0000103802.jpg</file>
<captureTime>2015-06-01T00:46:36Z</captureTime>
<easting>537922</easting>
<northing>174509</northing>
<lat>51.452774</lat>
<lng>-0.01641305</lng>
<osgr>TQ379745</osgr>
<postCode></postCode>
</camera>
<camera id="00001.03803" available="true">
<corridor></corridor>
<location>A21 North of Davenport Rd</location>
<currentView></currentView>
<file>0000103803.jpg</file>
<captureTime>2015-06-01T00:44:53Z</captureTime>
<easting>537896</easting>
<northing>174173</northing>
<lat>51.44976</lat>
<lng>-0.016917843</lng>
<osgr>TQ379742</osgr>
<postCode></postCode>
</camera>
<camera id="00001.03804" available="true">
<corridor></corridor>
<location>A21 north of Hawstead Rd</location>
<currentView></currentView>
<file>0000103804.jpg</file>
<captureTime>2015-06-01T00:46:45Z</captureTime>
<easting>537881</easting>
<northing>174220</northing>
<lat>51.450184</lat>
<lng>-0.01711527</lng>
<osgr>TQ379742</osgr>
<postCode></postCode>
</camera>
<camera id="00001.03805" available="true">
<corridor></corridor>
<location>A21 Rushey Grn/Ringstead Rd</location>
<currentView></currentView>
<file>0000103805.jpg</file>
<captureTime>2015-06-01T00:45:21Z</captureTime>
<easting>537763</easting>
<northing>173849</northing>
<lat>51.44688</lat>
<lng>-0.018956643</lng>
<osgr>TQ378738</osgr>
<postCode></postCode>
</camera>
<camera id="00001.03806" available="true">
<corridor></corridor>
<location>A21 Bromley Rd/Beckenham Hl Rd</location>
<currentView></currentView>
<file>0000103806.jpg</file>
<captureTime>2015-06-01T00:45:45Z</captureTime>
<easting>538407</easting>
<northing>171654</northing>
<lat>51.427</lat>
<lng>-0.010552671</lng>
<osgr>TQ384717</osgr>
<postCode></postCode>
</camera>
<camera id="00001.03807" available="true">
<corridor></corridor>
<location>A21 south of Rookery Ln</location>
<currentView></currentView>
<file>0000103807.jpg</file>
<captureTime>2015-06-01T00:46:03Z</captureTime>
<easting>541785</easting>
<northing>167364</northing>
<lat>51.387615</lat>
<lng>0.03628989</lng>
<osgr>TQ418674</osgr>
<postCode></postCode>
</camera>
<camera id="00001.03808" available="true">
<corridor></corridor>
<location>Tweedy Rd E of Sherman Rd</location>
<currentView></currentView>
<file>0000103808.jpg</file>
<captureTime>2015-06-01T00:45:38Z</captureTime>
<easting>540390</easting>
<northing>169587</northing>
<lat>51.407936</lat>
<lng>0.01713369</lng>
<osgr>TQ404696</osgr>
<postCode></postCode>
</camera>
<camera id="00001.03809" available="true">
<corridor></corridor>
<location>Tweedy Rd N of Widmore Rd</location>
<currentView></currentView>
<file>0000103809.jpg</file>
<captureTime>2015-06-01T00:44:58Z</captureTime>
<easting>540501</easting>
<northing>169446</northing>
<lat>51.406643</lat>
<lng>0.018672764</lng>
<osgr>TQ405694</osgr>
<postCode></postCode>
</camera>
<camera id="00001.03810" available="true">
<corridor></corridor>
<location>Kentish Way N of Masons Hill</location>
<currentView></currentView>
<file>0000103810.jpg</file>
<captureTime>2015-06-01T00:44:50Z</captureTime>
<easting>540642</easting>
<northing>168593</northing>
<lat>51.39894</lat>
<lng>0.02036078</lng>
<osgr>TQ406686</osgr>
<postCode></postCode>
</camera>
<camera id="00001.03811" available="true">
<corridor></corridor>
<location>High St/Grosvenor Rd W Wickham</location>
<currentView></currentView>
<file>0000103811.jpg</file>
<captureTime>2015-06-01T00:45:00Z</captureTime>
<easting>537871</easting>
<northing>166070</northing>
<lat>51.37695</lat>
<lng>-0.020425422</lng>
<osgr>TQ379661</osgr>
<postCode></postCode>
</camera>
<camera id="00001.03812" available="true">
<corridor></corridor>
<location>High St/Sherwood Way W Wickham</location>
<currentView></currentView>
<file>0000103812.jpg</file>
<captureTime>2015-06-01T00:45:19Z</captureTime>
<easting>538064</easting>
<northing>165988</northing>
<lat>51.376167</lat>
<lng>-0.017685989</lng>
<osgr>TQ381660</osgr>
<postCode></postCode>
</camera>
<camera id="00001.03813" available="true">
<corridor></corridor>
<location>A21 Bromley Rd/Penerley Rd</location>
<currentView></currentView>
<file>0000103813.jpg</file>
<captureTime>2015-06-01T00:45:30Z</captureTime>
<easting>537658</easting>
<northing>173182</northing>
<lat>51.44091</lat>
<lng>-0.020725816</lng>
<osgr>TQ377732</osgr>
<postCode></postCode>
</camera>
<camera id="00001.03814" available="true">
<corridor></corridor>
<location>A21 Bromley Rd/Inchmery Rd</location>
<currentView></currentView>
<file>0000103814.jpg</file>
<captureTime>2015-06-01T00:45:15Z</captureTime>
<easting>537755</easting>
<northing>172966</northing>
<lat>51.438946</lat>
<lng>-0.019415032</lng>
<osgr>TQ378730</osgr>
<postCode></postCode>
</camera>
<camera id="00001.03815" available="true">
<corridor></corridor>
<location>A21 Bromley Rd/Newquay Rd</location>
<currentView></currentView>
<file>0000103815.jpg</file>
<captureTime>2015-06-01T00:45:05Z</captureTime>
<easting>537824</easting>
<northing>172757</northing>
<lat>51.437054</lat>
<lng>-0.018504212</lng>
<osgr>TQ378728</osgr>
<postCode></postCode>
</camera>
<camera id="00001.03816" available="true">
<corridor></corridor>
<location>A21 Bromley Rd/Callander Rd</location>
<currentView></currentView>
<file>0000103816.jpg</file>
<captureTime>2015-06-01T00:45:12Z</captureTime>
<easting>537879</easting>
<northing>172527</northing>
<lat>51.43497</lat>
<lng>-0.017802913</lng>
<osgr>TQ379725</osgr>
<postCode></postCode>
</camera>
<camera id="00001.03817" available="true">
<corridor></corridor>
<location>A21 Bromley Rd/Bellingham Rd</location>
<currentView></currentView>
<file>0000103817.jpg</file>
<captureTime>2015-06-01T00:45:01Z</captureTime>
<easting>537884</easting>
<northing>172358</northing>
<lat>51.433453</lat>
<lng>-0.01779677</lng>
<osgr>TQ379724</osgr>
<postCode></postCode>
</camera>
<camera id="00001.03818" available="true">
<corridor></corridor>
<location>A21 Bromley Rd/Watermead Rd</location>
<currentView></currentView>
<file>0000103818.jpg</file>
<captureTime>2015-06-01T00:45:50Z</captureTime>
<easting>538155</easting>
<northing>171888</northing>
<lat>51.42916</lat>
<lng>-0.01408388</lng>
<osgr>TQ382719</osgr>
<postCode></postCode>
</camera>
<camera id="00001.03819" available="true">
<corridor></corridor>
<location>A21 London Rd/Tweedy Rd</location>
<currentView></currentView>
<file>0000103819.jpg</file>
<captureTime>2015-06-01T00:46:33Z</captureTime>
<easting>539951</easting>
<northing>169686</northing>
<lat>51.408936</lat>
<lng>0.0108650215</lng>
<osgr>TQ400697</osgr>
<postCode></postCode>
</camera>
<camera id="00001.03820" available="true">
<corridor></corridor>
<location>Lewisham High St/Courthill Rd</location>
<currentView></currentView>
<file>0000103820.jpg</file>
<captureTime>2015-06-01T00:44:57Z</captureTime>
<easting>538123</easting>
<northing>175026</northing>
<lat>51.45737</lat>
<lng>-0.013320433</lng>
<osgr>TQ381750</osgr>
<postCode></postCode>
</camera>
<camera id="00001.03821" available="true">
<corridor></corridor>
<location>Rushy Green/Rosenthal Rd</location>
<currentView></currentView>
<file>0000103821.jpg</file>
<captureTime>2015-06-01T00:46:30Z</captureTime>
<easting>537878</easting>
<northing>174067</northing>
<lat>51.44881</lat>
<lng>-0.017217983</lng>
<osgr>TQ379741</osgr>
<postCode></postCode>
</camera>
<camera id="00001.03822" available="true">
<corridor></corridor>
<location>Molesworth St/Riversdale shops</location>
<currentView></currentView>
<file>0000103822.jpg</file>
<captureTime>2015-06-01T00:46:05Z</captureTime>
<easting>538108</easting>
<northing>175523</northing>
<lat>51.461838</lat>
<lng>-0.01334226</lng>
<osgr>TQ381755</osgr>
<postCode></postCode>
</camera>
<camera id="00001.03823" available="true">
<corridor></corridor>
<location>Tweedy Rd/Florence Rd</location>
<currentView></currentView>
<file>0000103823.jpg</file>
<captureTime>2015-06-01T00:45:23Z</captureTime>
<easting>540255</easting>
<northing>169640</northing>
<lat>51.408447</lat>
<lng>0.015214909</lng>
<osgr>TQ403696</osgr>
<postCode></postCode>
</camera>
<camera id="00001.03824" available="true">
<corridor></corridor>
<location>Wickham Rd/Monks Orchard Rd</location>
<currentView></currentView>
<file>0000103824.jpg</file>
<captureTime>2015-06-01T00:45:26Z</captureTime>
<easting>537303</easting>
<northing>166094</northing>
<lat>51.377304</lat>
<lng>-0.028572053</lng>
<osgr>TQ373661</osgr>
<postCode></postCode>
</camera>
<camera id="00001.03825" available="false">
<corridor></corridor>
<location>Camberwell Rd/Albany Rd</location>
<currentView></currentView>
<file>0000103825.jpg</file>
<unavailabilityCause>In use keeping London moving</unavailabilityCause>
<captureTime>1970-01-01T00:00:00Z</captureTime>
<easting>532404</easting>
<northing>177659</northing>
<lat>51.482395</lat>
<lng>-0.09460062</lng>
<osgr>TQ324777</osgr>
<postCode></postCode>
</camera>
<camera id="00001.03826" available="true">
<corridor></corridor>
<location>Bromley Rd/Oakridge Ln</location>
<currentView></currentView>
<file>0000103826.jpg</file>
<captureTime>2015-06-01T00:46:34Z</captureTime>
<easting>538831</easting>
<northing>171446</northing>
<lat>51.425026</lat>
<lng>-0.004539327</lng>
<osgr>TQ388714</osgr>
<postCode></postCode>
</camera>
<camera id="00001.03835" available="true">
<corridor></corridor>
<location>Farnborough Common/Croydon Rd</location>
<currentView></currentView>
<file>0000103835.jpg</file>
<captureTime>2015-06-01T00:46:39Z</captureTime>
<easting>543022</easting>
<northing>165020</northing>
<lat>51.36624</lat>
<lng>0.05311252</lng>
<osgr>TQ430650</osgr>
<postCode></postCode>
</camera>
<camera id="00001.03850" available="true">
<corridor></corridor>
<location>Walworth Rd/Heygate St</location>
<currentView></currentView>
<file>0000103850.jpg</file>
<captureTime>2015-06-01T00:44:27Z</captureTime>
<easting>532131</easting>
<northing>178703</northing>
<lat>51.49184</lat>
<lng>-0.09813946</lng>
<osgr>TQ321787</osgr>
<postCode></postCode>
</camera>
<camera id="00001.03856" available="true">
<corridor></corridor>
<location>Denmark Hill/Love Walk</location>
<currentView></currentView>
<file>0000103856.jpg</file>
<captureTime>2015-06-01T00:45:53Z</captureTime>
<easting>532543</easting>
<northing>176419</northing>
<lat>51.471222</lat>
<lng>-0.09306485</lng>
<osgr>TQ325764</osgr>
<postCode></postCode>
</camera>
<camera id="00001.03858" available="true">
<corridor></corridor>
<location>Denmark Hill/Champion Pk</location>
<currentView></currentView>
<file>0000103858.jpg</file>
<captureTime>2015-06-01T00:44:43Z</captureTime>
<easting>532707</easting>
<northing>175964</northing>
<lat>51.467094</lat>
<lng>-0.09087573</lng>
<osgr>TQ327760</osgr>
<postCode></postCode>
</camera>
<camera id="00001.03865" available="false">
<corridor></corridor>
<location>Herne Hill/Norwood Rd</location>
<currentView></currentView>
<file>0000103865.jpg</file>
<unavailabilityCause>In use keeping London moving</unavailabilityCause>
<captureTime>1970-01-01T00:00:00Z</captureTime>
<easting>532023</easting>
<northing>174285</northing>
<lat>51.452164</lat>
<lng>-0.10134331</lng>
<osgr>TQ320743</osgr>
<postCode></postCode>
</camera>
<camera id="00001.03901" available="true">
<corridor></corridor>
<location>Lordship Ln/Dulwich Cmn</location>
<currentView></currentView>
<file>0000103901.jpg</file>
<captureTime>2015-06-01T00:45:49Z</captureTime>
<easting>534401</easting>
<northing>173367</northing>
<lat>51.443356</lat>
<lng>-0.06748899</lng>
<osgr>TQ344734</osgr>
<postCode></postCode>
</camera>
<camera id="00001.03902" available="true">
<corridor></corridor>
<location>Thurlow Park Road/Croxted Road</location>
<currentView></currentView>
<file>0000103902.jpg</file>
<captureTime>2015-06-01T00:46:28Z</captureTime>
<easting>532657</easting>
<northing>173077</northing>
<lat>51.441162</lat>
<lng>-0.092676826</lng>
<osgr>TQ327731</osgr>
<postCode></postCode>
</camera>
<camera id="00001.03905" available="true">
<corridor></corridor>
<location>A205 Dulwich Common/College Rd</location>
<currentView></currentView>
<file>0000103905.jpg</file>
<captureTime>2015-06-01T00:46:27Z</captureTime>
<easting>533207</easting>
<northing>173151</northing>
<lat>51.441696</lat>
<lng>-0.08474022</lng>
<osgr>TQ332732</osgr>
<postCode></postCode>
</camera>
<camera id="00001.03950" available="true">
<corridor></corridor>
<location>Baring Rd/Le May Avenue</location>
<currentView></currentView>
<file>0000103950.jpg</file>
<captureTime>2015-06-01T00:45:16Z</captureTime>
<easting>540612</easting>
<northing>172289</northing>
<lat>51.432163</lat>
<lng>0.021394469</lng>
<osgr>TQ406723</osgr>
<postCode></postCode>
</camera>
<camera id="00001.04005" available="true">
<corridor></corridor>
<location>A102 B&amp;#039;wall Tunnel Sth Appr</location>
<currentView></currentView>
<file>0000104005.jpg</file>
<captureTime>2015-06-01T00:44:59Z</captureTime>
<easting>540291</easting>
<northing>178237</northing>
<lat>51.48569</lat>
<lng>0.019137386</lng>
<osgr>TQ403782</osgr>
<postCode></postCode>
</camera>
<camera id="00001.04150" available="true">
<corridor></corridor>
<location>A22 Godstone Rd/Dale Rd</location>
<currentView></currentView>
<file>0000104150.jpg</file>
<captureTime>2015-06-01T00:45:31Z</captureTime>
<easting>531571</easting>
<northing>161241</northing>
<lat>51.335045</lat>
<lng>-0.112674996</lng>
<osgr>TQ316612</osgr>
<postCode></postCode>
</camera>
<camera id="00001.04214" available="true">
<corridor></corridor>
<location>Southwark St/Southwark Bdge Rd</location>
<currentView></currentView>
<file>0000104214.jpg</file>
<captureTime>2015-06-01T00:46:30Z</captureTime>
<easting>532287</easting>
<northing>180150</northing>
<lat>51.50481</lat>
<lng>-0.09535171</lng>
<osgr>TQ323802</osgr>
<postCode></postCode>
</camera>
<camera id="00001.04220" available="true">
<corridor></corridor>
<location>Stamford St/Broadwall</location>
<currentView></currentView>
<file>0000104220.jpg</file>
<captureTime>2015-06-01T00:45:18Z</captureTime>
<easting>531372</easting>
<northing>180356</northing>
<lat>51.506874</lat>
<lng>-0.10845086</lng>
<osgr>TQ314804</osgr>
<postCode></postCode>
</camera>
<camera id="00001.04223" available="true">
<corridor></corridor>
<location>Waterloo Bridge south</location>
<currentView></currentView>
<file>0000104223.jpg</file>
<captureTime>2015-06-01T00:44:37Z</captureTime>
<easting>530990</easting>
<northing>180176</northing>
<lat>51.505344</lat>
<lng>-0.11401864</lng>
<osgr>TQ310802</osgr>
<postCode></postCode>
</camera>
<camera id="00001.04225" available="true">
<corridor></corridor>
<location>York Road opp Mepham St</location>
<currentView></currentView>
<file>0000104225.jpg</file>
<captureTime>2015-06-01T00:45:33Z</captureTime>
<easting>530950</easting>
<northing>180063</northing>
<lat>51.504337</lat>
<lng>-0.11463656</lng>
<osgr>TQ310801</osgr>
<postCode></postCode>
</camera>
<camera id="00001.04226" available="true">
<corridor></corridor>
<location>York Road/Leake Street</location>
<currentView></currentView>
<file>0000104226.jpg</file>
<captureTime>2015-06-01T00:44:57Z</captureTime>
<easting>530838</easting>
<northing>179844</northing>
<lat>51.502396</lat>
<lng>-0.11633049</lng>
<osgr>TQ308798</osgr>
<postCode></postCode>
</camera>
<camera id="00001.04227" available="true">
<corridor></corridor>
<location>Westminster Bridge/South</location>
<currentView></currentView>
<file>0000104227.jpg</file>
<captureTime>2015-06-01T00:46:20Z</captureTime>
<easting>530883</easting>
<northing>179690</northing>
<lat>51.501003</lat>
<lng>-0.115739614</lng>
<osgr>TQ309797</osgr>
<postCode></postCode>
</camera>
<camera id="00001.04230" available="true">
<corridor></corridor>
<location>Southwark St/Thrale St</location>
<currentView></currentView>
<file>0000104230.jpg</file>
<captureTime>2015-06-01T00:45:13Z</captureTime>
<easting>532412</easting>
<northing>180145</northing>
<lat>51.504734</lat>
<lng>-0.093553625</lng>
<osgr>TQ324801</osgr>
<postCode></postCode>
</camera>
<camera id="00001.04235" available="true">
<corridor></corridor>
<location>Horseferry Rd/Marsham St</location>
<currentView></currentView>
<file>0000104235.jpg</file>
<captureTime>2015-06-01T00:45:35Z</captureTime>
<easting>529986</easting>
<northing>178991</northing>
<lat>51.494926</lat>
<lng>-0.12891258</lng>
<osgr>TQ300790</osgr>
<postCode></postCode>
</camera>
<camera id="00001.04244" available="true">
<corridor></corridor>
<location>Westminster Bridge Rd/Waterloo Rd</location>
<currentView></currentView>
<file>0000104244.jpg</file>
<captureTime>2015-06-01T00:45:25Z</captureTime>
<easting>531604</easting>
<northing>179439</northing>
<lat>51.498577</lat>
<lng>-0.10545176</lng>
<osgr>TQ316794</osgr>
<postCode></postCode>
</camera>
<camera id="00001.04245" available="true">
<corridor></corridor>
<location>Blackfriars Rd/St George</location>
<currentView></currentView>
<file>0000104245.jpg</file>
<captureTime>2015-06-01T00:45:45Z</captureTime>
<easting>531639</easting>
<northing>179483</northing>
<lat>51.498966</lat>
<lng>-0.10493144</lng>
<osgr>TQ316795</osgr>
<postCode></postCode>
</camera>
<camera id="00001.04250" available="true">
<corridor></corridor>
<location>Lambeth Plc Rd/Royal St</location>
<currentView></currentView>
<file>0000104250.jpg</file>
<captureTime>2015-06-01T00:44:56Z</captureTime>
<easting>530770</easting>
<northing>179410</northing>
<lat>51.498512</lat>
<lng>-0.117470354</lng>
<osgr>TQ308794</osgr>
<postCode></postCode>
</camera>
<camera id="00001.04251" available="true">
<corridor></corridor>
<location>Lmbth Pal Rd/Lmbth Brdg</location>
<currentView></currentView>
<file>0000104251.jpg</file>
<captureTime>2015-06-01T00:46:13Z</captureTime>
<easting>530567</easting>
<northing>179097</northing>
<lat>51.495747</lat>
<lng>-0.12050885</lng>
<osgr>TQ306791</osgr>
<postCode></postCode>
</camera>
<camera id="00001.04252" available="true">
<corridor></corridor>
<location>Albert Emb/Lambeth Brdge</location>
<currentView></currentView>
<file>0000104252.jpg</file>
<captureTime>2015-06-01T00:45:30Z</captureTime>
<easting>530511</easting>
<northing>178870</northing>
<lat>51.493717</lat>
<lng>-0.121398956</lng>
<osgr>TQ305789</osgr>
<postCode></postCode>
</camera>
<camera id="00001.04253" available="true">
<corridor></corridor>
<location>Lambeth Bridge/Albert Embankment</location>
<currentView></currentView>
<file>0000104253.jpg</file>
<captureTime>2015-06-01T00:45:37Z</captureTime>
<easting>530534</easting>
<northing>178884</northing>
<lat>51.49384</lat>
<lng>-0.121062666</lng>
<osgr>TQ305789</osgr>
<postCode></postCode>
</camera>
<camera id="00001.04254" available="true">
<corridor></corridor>
<location>Albert Emb/Tinworth St</location>
<currentView></currentView>
<file>0000104254.jpg</file>
<captureTime>2015-06-01T00:46:00Z</captureTime>
<easting>530438</easting>
<northing>178478</northing>
<lat>51.49021</lat>
<lng>-0.122594625</lng>
<osgr>TQ304785</osgr>
<postCode></postCode>
</camera>
<camera id="00001.04255" available="true">
<corridor></corridor>
<location>Albert Emb/Glasshouse Wk</location>
<currentView></currentView>
<file>0000104255.jpg</file>
<captureTime>2015-06-01T00:45:36Z</captureTime>
<easting>530418</easting>
<northing>178329</northing>
<lat>51.488876</lat>
