{
"type": "FeatureCollection",
"crs": { "type": "name", "properties": { "name": "urn:ogc:def:crs:OGC:1.3:CRS84" } },
"bbox": [ -0.48445, 51.30498, 0.27279, 51.67725 ],               
"features": [
{ "type": "Feature", "id": "E05000405", "properties": { "name": "Chessington South Ward", "NUMBER": 52.000000, "NUMBER0": 733.000000, "POLYGON_ID": 50840.000000, "UNIT_ID":10884, "HECTARES": 755.173000, "AREA": 0.000000 }, "bbox": [ -0.31203, 51.34797, -0.31203, 51.34797 ], "geometry": { "type": "Point", "coordinates": [ -0.31203, 51.34797 ] } },
{ "type": "Feature", "id": "E05000414", "properties": { "name": "Tolworth and Hook Rise Ward", "NUMBER": 106.000000, "NUMBER0": 734.000000, "POLYGON_ID": 117160.000000, "UNIT_ID":11407, "HECTARES": 259.464000, "AREA": 0.000000 }, "bbox": [ -0.2899, 51.37427, -0.2899, 51.37427 ], "geometry": { "type": "Point", "coordinates": [ -0.2899, 51.37427 ] } },
{ "type": "Feature", "id": "E05000401", "properties": { "name": "Berrylands Ward", "NUMBER": 107.000000, "NUMBER0": 735.000000, "POLYGON_ID": 50449.000000, "UNIT_ID":11413, "HECTARES": 145.390000, "AREA": 0.000000 }, "bbox": [ -0.28946, 51.39265, -0.28946, 51.39265 ], "geometry": { "type": "Point", "coordinates": [ -0.28946, 51.39265 ] } },
{ "type": "Feature", "id": "E05000400", "properties": { "name": "Alexandra Ward", "NUMBER": 108.000000, "NUMBER0": 736.000000, "POLYGON_ID": 50456.000000, "UNIT_ID":11420, "HECTARES": 268.506000, "AREA": 0.000000 }, "bbox": [ -0.27527, 51.38389, -0.27527, 51.38389 ], "geometry": { "type": "Point", "coordinates": [ -0.27527, 51.38389 ] } },
{ "type": "Feature", "id": "E05000402", "properties": { "name": "Beverley Ward", "NUMBER": 109.000000, "NUMBER0": 737.000000, "POLYGON_ID": 117161.000000, "UNIT_ID":11417, "HECTARES": 187.821000, "AREA": 0.000000 }, "bbox": [ -0.25894, 51.40274, -0.25894, 51.40274 ], "geometry": { "type": "Point", "coordinates": [ -0.25894, 51.40274 ] } },
{ "type": "Feature", "id": "E05000406", "properties": { "name": "Coombe Hill Ward", "NUMBER": 118.000000, "NUMBER0": 738.000000, "POLYGON_ID": 117159.000000, "UNIT_ID":11423, "HECTARES": 442.170000, "AREA": 0.000000 }, "bbox": [ -0.26468, 51.42177, -0.26468, 51.42177 ], "geometry": { "type": "Point", "coordinates": [ -0.26468, 51.42177 ] } },
{ "type": "Feature", "id": "E05000404", "properties": { "name": "Chessington North and Hook Ward", "NUMBER": 308.000000, "NUMBER0": 739.000000, "POLYGON_ID": 50530.000000, "UNIT_ID":11406, "HECTARES": 192.980000, "AREA": 0.000000 }, "bbox": [ -0.30537, 51.36815, -0.30537, 51.36815 ], "geometry": { "type": "Point", "coordinates": [ -0.30537, 51.36815 ] } },
{ "type": "Feature", "id": "E05000413", "properties": { "name": "Surbiton Hill Ward", "NUMBER": 309.000000, "NUMBER0": 740.000000, "POLYGON_ID": 50457.000000, "UNIT_ID":11421, "HECTARES": 166.482000, "AREA": 0.000000 }, "bbox": [ -0.30132, 51.38481, -0.30132, 51.38481 ], "geometry": { "type": "Point", "coordinates": [ -0.30132, 51.38481 ] } },
{ "type": "Feature", "id": "E05000410", "properties": { "name": "Old Malden Ward", "NUMBER": 310.000000, "NUMBER0": 741.000000, "POLYGON_ID": 50455.000000, "UNIT_ID":11419, "HECTARES": 180.016000, "AREA": 0.000000 }, "bbox": [ -0.25544, 51.38501, -0.25544, 51.38501 ], "geometry": { "type": "Point", "coordinates": [ -0.25544, 51.38501 ] } },
{ "type": "Feature", "id": "E05000412", "properties": { "name": "St. Mark's Ward", "NUMBER": 313.000000, "NUMBER0": 742.000000, "POLYGON_ID": 50450.000000, "UNIT_ID":11414, "HECTARES": 137.578000, "AREA": 0.000000 }, "bbox": [ -0.30169, 51.39605, -0.30169, 51.39605 ], "geometry": { "type": "Point", "coordinates": [ -0.30169, 51.39605 ] } },
{ "type": "Feature", "id": "E05000408", "properties": { "name": "Grove Ward", "NUMBER": 314.000000, "NUMBER0": 743.000000, "POLYGON_ID": 50458.000000, "UNIT_ID":11422, "HECTARES": 192.034000, "AREA": 0.000000 }, "bbox": [ -0.29991, 51.40467, -0.29991, 51.40467 ], "geometry": { "type": "Point", "coordinates": [ -0.29991, 51.40467 ] } },
{ "type": "Feature", "id": "E05000403", "properties": { "name": "Canbury Ward", "NUMBER": 315.000000, "NUMBER0": 744.000000, "POLYGON_ID": 51118.000000, "UNIT_ID":11469, "HECTARES": 124.241000, "AREA": 0.000000 }, "bbox": [ -0.29466, 51.41685, -0.29466, 51.41685 ], "geometry": { "type": "Point", "coordinates": [ -0.29466, 51.41685 ] } },
{ "type": "Feature", "id": "E05000409", "properties": { "name": "Norbiton Ward", "NUMBER": 316.000000, "NUMBER0": 745.000000, "POLYGON_ID": 50451.000000, "UNIT_ID":11415, "HECTARES": 134.711000, "AREA": 0.000000 }, "bbox": [ -0.28558, 51.4076, -0.28558, 51.4076 ], "geometry": { "type": "Point", "coordinates": [ -0.28558, 51.4076 ] } },
{ "type": "Feature", "id": "E05000407", "properties": { "name": "Coombe Vale Ward", "NUMBER": 317.000000, "NUMBER0": 746.000000, "POLYGON_ID": 50452.000000, "UNIT_ID":11416, "HECTARES": 164.710000, "AREA": 0.000000 }, "bbox": [ -0.26739, 51.40924, -0.26739, 51.40924 ], "geometry": { "type": "Point", "coordinates": [ -0.26739, 51.40924 ] } },
{ "type": "Feature", "id": "E05000411", "properties": { "name": "St. James Ward", "NUMBER": 318.000000, "NUMBER0": 747.000000, "POLYGON_ID": 50454.000000, "UNIT_ID":11418, "HECTARES": 216.584000, "AREA": 0.000000 }, "bbox": [ -0.25645, 51.39326, -0.25645, 51.39326 ], "geometry": { "type": "Point", "coordinates": [ -0.25645, 51.39326 ] } },
{ "type": "Feature", "id": "E05000415", "properties": { "name": "Tudor Ward", "NUMBER": 345.000000, "NUMBER0": 748.000000, "POLYGON_ID": 51117.000000, "UNIT_ID":11468, "HECTARES": 158.255000, "AREA": 0.000000 }, "bbox": [ -0.30132, 51.42496, -0.30132, 51.42496 ], "geometry": { "type": "Point", "coordinates": [ -0.30132, 51.42496 ] } },
{ "type": "Feature", "id": "E05000150", "properties": { "name": "Coulsdon East Ward", "NUMBER": 63.000000, "NUMBER0": 752.000000, "POLYGON_ID": 50897.000000, "UNIT_ID":10765, "HECTARES": 774.358000, "AREA": 0.000000 }, "bbox": [ -0.12351, 51.30498, -0.12351, 51.30498 ], "geometry": { "type": "Point", "coordinates": [ -0.12351, 51.30498 ] } },
{ "type": "Feature", "id": "E05000162", "properties": { "name": "Selsdon and Ballards Ward", "NUMBER": 64.000000, "NUMBER0": 753.000000, "POLYGON_ID": 50900.000000, "UNIT_ID":10768, "HECTARES": 639.834000, "AREA": 0.000000 }, "bbox": [ -0.06104, 51.34344, -0.06104, 51.34344 ], "geometry": { "type": "Point", "coordinates": [ -0.06104, 51.34344 ] } },
{ "type": "Feature", "id": "E05000151", "properties": { "name": "Coulsdon West Ward", "NUMBER": 96.000000, "NUMBER0": 754.000000, "POLYGON_ID": 51328.000000, "UNIT_ID":10894, "HECTARES": 499.147000, "AREA": 0.000000 }, "bbox": [ -0.14243, 51.32201, -0.14243, 51.32201 ], "geometry": { "type": "Point", "coordinates": [ -0.14243, 51.32201 ] } },
{ "type": "Feature", "id": "E05000167", "properties": { "name": "Waddon Ward", "NUMBER": 112.000000, "NUMBER0": 755.000000, "POLYGON_ID": 51256.000000, "UNIT_ID":10998, "HECTARES": 364.759000, "AREA": 0.000000 }, "bbox": [ -0.11154, 51.36104, -0.11154, 51.36104 ], "geometry": { "type": "Point", "coordinates": [ -0.11154, 51.36104 ] } },
{ "type": "Feature", "id": "E05000156", "properties": { "name": "Kenley Ward", "NUMBER": 129.000000, "NUMBER0": 756.000000, "POLYGON_ID": 50898.000000, "UNIT_ID":10766, "HECTARES": 645.593000, "AREA": 0.000000 }, "bbox": [ -0.10416, 51.31846, -0.10416, 51.31846 ], "geometry": { "type": "Point", "coordinates": [ -0.10416, 51.31846 ] } },
{ "type": "Feature", "id": "E05000159", "properties": { "name": "Purley Ward", "NUMBER": 130.000000, "NUMBER0": 757.000000, "POLYGON_ID": 51329.000000, "UNIT_ID":10895, "HECTARES": 417.518000, "AREA": 0.000000 }, "bbox": [ -0.11666, 51.34043, -0.11666, 51.34043 ], "geometry": { "type": "Point", "coordinates": [ -0.11666, 51.34043 ] } },
{ "type": "Feature", "id": "E05000160", "properties": { "name": "Sanderstead Ward", "NUMBER": 131.000000, "NUMBER0": 758.000000, "POLYGON_ID": 50899.000000, "UNIT_ID":10767, "HECTARES": 634.600000, "AREA": 0.000000 }, "bbox": [ -0.08067, 51.33122, -0.08067, 51.33122 ], "geometry": { "type": "Point", "coordinates": [ -0.08067, 51.33122 ] } },
{ "type": "Feature", "id": "E05000155", "properties": { "name": "Heathfield Ward", "NUMBER": 133.000000, "NUMBER0": 759.000000, "POLYGON_ID": 51332.000000, "UNIT_ID":10898, "HECTARES": 871.342000, "AREA": 0.000000 }, "bbox": [ -0.04198, 51.35686, -0.04198, 51.35686 ], "geometry": { "type": "Point", "coordinates": [ -0.04198, 51.35686 ] } },
{ "type": "Feature", "id": "E05000153", "properties": { "name": "Fairfield Ward", "NUMBER": 134.000000, "NUMBER0": 760.000000, "POLYGON_ID": 51198.000000, "UNIT_ID":11028, "HECTARES": 377.221000, "AREA": 0.000000 }, "bbox": [ -0.08588, 51.37093, -0.08588, 51.37093 ], "geometry": { "type": "Point", "coordinates": [ -0.08588, 51.37093 ] } },
{ "type": "Feature", "id": "E05000149", "properties": { "name": "Broad Green Ward", "NUMBER": 333.000000, "NUMBER0": 761.000000, "POLYGON_ID": 51196.000000, "UNIT_ID":11026, "HECTARES": 266.195000, "AREA": 0.000000 }, "bbox": [ -0.11602, 51.37967, -0.11602, 51.37967 ], "geometry": { "type": "Point", "coordinates": [ -0.11602, 51.37967 ] } },
{ "type": "Feature", "id": "E05000168", "properties": { "name": "West Thornton Ward", "NUMBER": 340.000000, "NUMBER0": 762.000000, "POLYGON_ID": 51197.000000, "UNIT_ID":11027, "HECTARES": 197.117000, "AREA": 0.000000 }, "bbox": [ -0.11894, 51.39215, -0.11894, 51.39215 ], "geometry": { "type": "Point", "coordinates": [ -0.11894, 51.39215 ] } },
{ "type": "Feature", "id": "E05000148", "properties": { "name": "Bensham Manor Ward", "NUMBER": 341.000000, "NUMBER0": 763.000000, "POLYGON_ID": 51145.000000, "UNIT_ID":11063, "HECTARES": 144.147000, "AREA": 0.000000 }, "bbox": [ -0.10639, 51.39712, -0.10639, 51.39712 ], "geometry": { "type": "Point", "coordinates": [ -0.10639, 51.39712 ] } },
{ "type": "Feature", "id": "E05000158", "properties": { "name": "Norbury Ward", "NUMBER": 344.000000, "NUMBER0": 764.000000, "POLYGON_ID": 51192.000000, "UNIT_ID":11022, "HECTARES": 251.818000, "AREA": 0.000000 }, "bbox": [ -0.11895, 51.41081, -0.11895, 51.41081 ], "geometry": { "type": "Point", "coordinates": [ -0.11895, 51.41081 ] } },
{ "type": "Feature", "id": "E05000157", "properties": { "name": "New Addington Ward", "NUMBER": 386.000000, "NUMBER0": 765.000000, "POLYGON_ID": 50901.000000, "UNIT_ID":10769, "HECTARES": 241.710000, "AREA": 0.000000 }, "bbox": [ -0.00995, 51.34124, -0.00995, 51.34124 ], "geometry": { "type": "Point", "coordinates": [ -0.00995, 51.34124 ] } },
{ "type": "Feature", "id": "E05000152", "properties": { "name": "Croham Ward", "NUMBER": 387.000000, "NUMBER0": 766.000000, "POLYGON_ID": 51331.000000, "UNIT_ID":10897, "HECTARES": 352.705000, "AREA": 0.000000 }, "bbox": [ -0.08844, 51.35519, -0.08844, 51.35519 ], "geometry": { "type": "Point", "coordinates": [ -0.08844, 51.35519 ] } },
{ "type": "Feature", "id": "E05000154", "properties": { "name": "Fieldway Ward", "NUMBER": 388.000000, "NUMBER0": 767.000000, "POLYGON_ID": 51261.000000, "UNIT_ID":11003, "HECTARES": 148.649000, "AREA": 0.000000 }, "bbox": [ -0.01793, 51.35351, -0.01793, 51.35351 ], "geometry": { "type": "Point", "coordinates": [ -0.01793, 51.35351 ] } },
{ "type": "Feature", "id": "E05000163", "properties": { "name": "Shirley Ward", "NUMBER": 389.000000, "NUMBER0": 768.000000, "POLYGON_ID": 116954.000000, "UNIT_ID":11002, "HECTARES": 280.541000, "AREA": 0.000000 }, "bbox": [ -0.03828, 51.37543, -0.03828, 51.37543 ], "geometry": { "type": "Point", "coordinates": [ -0.03828, 51.37543 ] } },
{ "type": "Feature", "id": "E05000161", "properties": { "name": "Selhurst Ward", "NUMBER": 390.000000, "NUMBER0": 769.000000, "POLYGON_ID": 51199.000000, "UNIT_ID":11029, "HECTARES": 227.303000, "AREA": 0.000000 }, "bbox": [ -0.09229, 51.38963, -0.09229, 51.38963 ], "geometry": { "type": "Point", "coordinates": [ -0.09229, 51.38963 ] } },
{ "type": "Feature", "id": "E05000147", "properties": { "name": "Ashburton Ward", "NUMBER": 391.000000, "NUMBER0": 770.000000, "POLYGON_ID": 51259.000000, "UNIT_ID":11001, "HECTARES": 271.173000, "AREA": 0.000000 }, "bbox": [ -0.05828, 51.38422, -0.05828, 51.38422 ], "geometry": { "type": "Point", "coordinates": [ -0.05828, 51.38422 ] } },
{ "type": "Feature", "id": "E05000169", "properties": { "name": "Woodside Ward", "NUMBER": 392.000000, "NUMBER0": 771.000000, "POLYGON_ID": 116956.000000, "UNIT_ID":11000, "HECTARES": 216.651000, "AREA": 0.000000 }, "bbox": [ -0.06628, 51.39348, -0.06628, 51.39348 ], "geometry": { "type": "Point", "coordinates": [ -0.06628, 51.39348 ] } },
{ "type": "Feature", "id": "E05000165", "properties": { "name": "Thornton Heath Ward", "NUMBER": 393.000000, "NUMBER0": 772.000000, "POLYGON_ID": 51232.000000, "UNIT_ID":11062, "HECTARES": 168.107000, "AREA": 0.000000 }, "bbox": [ -0.09555, 51.40337, -0.09555, 51.40337 ], "geometry": { "type": "Point", "coordinates": [ -0.09555, 51.40337 ] } },
{ "type": "Feature", "id": "E05000166", "properties": { "name": "Upper Norwood Ward", "NUMBER": 394.000000, "NUMBER0": 773.000000, "POLYGON_ID": 119328.000000, "UNIT_ID":11060, "HECTARES": 262.328000, "AREA": 0.000000 }, "bbox": [ -0.09874, 51.41463, -0.09874, 51.41463 ], "geometry": { "type": "Point", "coordinates": [ -0.09874, 51.41463 ] } },
{ "type": "Feature", "id": "E05000164", "properties": { "name": "South Norwood Ward", "NUMBER": 395.000000, "NUMBER0": 774.000000, "POLYGON_ID": 51146.000000, "UNIT_ID":11064, "HECTARES": 237.817000, "AREA": 0.000000 }, "bbox": [ -0.0782, 51.40544, -0.0782, 51.40544 ], "geometry": { "type": "Point", "coordinates": [ -0.0782, 51.40544 ] } },
{ "type": "Feature", "id": "E05000146", "properties": { "name": "Addiscombe Ward", "NUMBER": 663.000000, "NUMBER0": 775.000000, "POLYGON_ID": 51257.000000, "UNIT_ID":10999, "HECTARES": 158.808000, "AREA": 0.000000 }, "bbox": [ -0.08162, 51.38077, -0.08162, 51.38077 ], "geometry": { "type": "Point", "coordinates": [ -0.08162, 51.38077 ] } },
{ "type": "Feature", "id": "E05000117", "properties": { "name": "Darwin Ward", "NUMBER": 7.000000, "NUMBER0": 777.000000, "POLYGON_ID": 117267.000000, "UNIT_ID":10773, "HECTARES": 2903.960000, "AREA": 0.000000 }, "bbox": [ 0.05722, 51.32715, 0.05722, 51.32715 ], "geometry": { "type": "Point", "coordinates": [ 0.05722, 51.32715 ] } },
{ "type": "Feature", "id": "E05000119", "properties": { "name": "Hayes and Coney Hall Ward", "NUMBER": 65.000000, "NUMBER0": 779.000000, "POLYGON_ID": 117271.000000, "UNIT_ID":10900, "HECTARES": 1082.306000, "AREA": 0.000000 }, "bbox": [ 0.01156, 51.36978, 0.01156, 51.36978 ], "geometry": { "type": "Point", "coordinates": [ 0.01156, 51.36978 ] } },
{ "type": "Feature", "id": "E05000108", "properties": { "name": "Bromley Common and Keston Ward", "NUMBER": 66.000000, "NUMBER0": 780.000000, "POLYGON_ID": 50903.000000, "UNIT_ID":10771, "HECTARES": 830.820000, "AREA": 0.000000 }, "bbox": [ 0.04077, 51.37256, 0.04077, 51.37256 ], "geometry": { "type": "Point", "coordinates": [ 0.04077, 51.37256 ] } },
{ "type": "Feature", "id": "E05000110", "properties": { "name": "Chelsfield and Pratts Bottom Ward", "NUMBER": 67.000000, "NUMBER0": 781.000000, "POLYGON_ID": 117270.000000, "UNIT_ID":10763, "HECTARES": 1256.320000, "AREA": 0.000000 }, "bbox": [ 0.11321, 51.35104, 0.11321, 51.35104 ], "geometry": { "type": "Point", "coordinates": [ 0.11321, 51.35104 ] } },
{ "type": "Feature", "id": "E05000107", "properties": { "name": "Biggin Hill Ward", "NUMBER": 132.000000, "NUMBER0": 782.000000, "POLYGON_ID": 50896.000000, "UNIT_ID":10764, "HECTARES": 828.039000, "AREA": 0.000000 }, "bbox": [ 0.02367, 51.3163, 0.02367, 51.3163 ], "geometry": { "type": "Point", "coordinates": [ 0.02367, 51.3163 ] } },
{ "type": "Feature", "id": "E05000127", "properties": { "name": "West Wickham Ward", "NUMBER": 135.000000, "NUMBER0": 783.000000, "POLYGON_ID": 117268.000000, "UNIT_ID":11006, "HECTARES": 441.047000, "AREA": 0.000000 }, "bbox": [ -0.01156, 51.37793, -0.01156, 51.37793 ], "geometry": { "type": "Point", "coordinates": [ -0.01156, 51.37793 ] } },
{ "type": "Feature", "id": "E05000112", "properties": { "name": "Clock House Ward", "NUMBER": 136.000000, "NUMBER0": 784.000000, "POLYGON_ID": 117277.000000, "UNIT_ID":11030, "HECTARES": 226.647000, "AREA": 0.000000 }, "bbox": [ -0.04784, 51.40497, -0.04784, 51.40497 ], "geometry": { "type": "Point", "coordinates": [ -0.04784, 51.40497 ] } },
{ "type": "Feature", "id": "E05000120", "properties": { "name": "Kelsey and Eden Park Ward", "NUMBER": 137.000000, "NUMBER0": 785.000000, "POLYGON_ID": 117269.000000, "UNIT_ID":11004, "HECTARES": 519.895000, "AREA": 0.000000 }, "bbox": [ -0.02973, 51.39366, -0.02973, 51.39366 ], "geometry": { "type": "Point", "coordinates": [ -0.02973, 51.39366 ] } },
{ "type": "Feature", "id": "E05000118", "properties": { "name": "Farnborough and Crofton Ward", "NUMBER": 138.000000, "NUMBER0": 786.000000, "POLYGON_ID": 117272.000000, "UNIT_ID":10770, "HECTARES": 700.584000, "AREA": 0.000000 }, "bbox": [ 0.06693, 51.36539, 0.06693, 51.36539 ], "geometry": { "type": "Point", "coordinates": [ 0.06693, 51.36539 ] } },
{ "type": "Feature", "id": "E05000126", "properties": { "name": "Shortlands Ward", "NUMBER": 139.000000, "NUMBER0": 787.000000, "POLYGON_ID": 117276.000000, "UNIT_ID":11032, "HECTARES": 245.665000, "AREA": 0.000000 }, "bbox": [ -0.00173, 51.39644, -0.00173, 51.39644 ], "geometry": { "type": "Point", "coordinates": [ -0.00173, 51.39644 ] } },
{ "type": "Feature", "id": "E05000109", "properties": { "name": "Bromley Town Ward", "NUMBER": 140.000000, "NUMBER0": 788.000000, "POLYGON_ID": 117281.000000, "UNIT_ID":11034, "HECTARES": 371.656000, "AREA": 0.000000 }, "bbox": [ 0.01472, 51.40372, 0.01472, 51.40372 ], "geometry": { "type": "Point", "coordinates": [ 0.01472, 51.40372 ] } },
{ "type": "Feature", "id": "E05000106", "properties": { "name": "Bickley Ward", "NUMBER": 141.000000, "NUMBER0": 789.000000, "POLYGON_ID": 51335.000000, "UNIT_ID":10901, "HECTARES": 486.913000, "AREA": 0.000000 }, "bbox": [ 0.04633, 51.40164, 0.04633, 51.40164 ], "geometry": { "type": "Point", "coordinates": [ 0.04633, 51.40164 ] } },
{ "type": "Feature", "id": "E05000124", "properties": { "name": "Petts Wood and Knoll Ward", "NUMBER": 142.000000, "NUMBER0": 790.000000, "POLYGON_ID": 50912.000000, "UNIT_ID":10780, "HECTARES": 430.127000, "AREA": 0.000000 }, "bbox": [ 0.07854, 51.3859, 0.07854, 51.3859 ], "geometry": { "type": "Point", "coordinates": [ 0.07854, 51.3859 ] } },
{ "type": "Feature", "id": "E05000116", "properties": { "name": "Crystal Palace Ward", "NUMBER": 144.000000, "NUMBER0": 791.000000, "POLYGON_ID": 117275.000000, "UNIT_ID":11065, "HECTARES": 229.114000, "AREA": 0.000000 }, "bbox": [ -0.06883, 51.41699, -0.06883, 51.41699 ], "geometry": { "type": "Point", "coordinates": [ -0.06883, 51.41699 ] } },
{ "type": "Feature", "id": "E05000123", "properties": { "name": "Penge and Cator Ward", "NUMBER": 145.000000, "NUMBER0": 792.000000, "POLYGON_ID": 117278.000000, "UNIT_ID":11066, "HECTARES": 295.972000, "AREA": 0.000000 }, "bbox": [ -0.04832, 51.41596, -0.04832, 51.41596 ], "geometry": { "type": "Point", "coordinates": [ -0.04832, 51.41596 ] } },
{ "type": "Feature", "id": "E05000113", "properties": { "name": "Copers Cope Ward", "NUMBER": 146.000000, "NUMBER0": 793.000000, "POLYGON_ID": 117279.000000, "UNIT_ID":11067, "HECTARES": 328.692000, "AREA": 0.000000 }, "bbox": [ -0.01942, 51.41181, -0.01942, 51.41181 ], "geometry": { "type": "Point", "coordinates": [ -0.01942, 51.41181 ] } },
{ "type": "Feature", "id": "E05000125", "properties": { "name": "Plaistow and Sundridge Ward", "NUMBER": 149.000000, "NUMBER0": 794.000000, "POLYGON_ID": 51336.000000, "UNIT_ID":10902, "HECTARES": 400.094000, "AREA": 0.000000 }, "bbox": [ 0.0233, 51.41778, 0.0233, 51.41778 ], "geometry": { "type": "Point", "coordinates": [ 0.0233, 51.41778 ] } },
{ "type": "Feature", "id": "E05000111", "properties": { "name": "Chislehurst Ward", "NUMBER": 151.000000, "NUMBER0": 795.000000, "POLYGON_ID": 50911.000000, "UNIT_ID":10779, "HECTARES": 1044.120000, "AREA": 0.000000 }, "bbox": [ 0.07429, 51.41309, 0.07429, 51.41309 ], "geometry": { "type": "Point", "coordinates": [ 0.07429, 51.41309 ] } },
{ "type": "Feature", "id": "E05000121", "properties": { "name": "Mottingham and Chislehurst North Ward", "NUMBER": 152.000000, "NUMBER0": 796.000000, "POLYGON_ID": 51338.000000, "UNIT_ID":10904, "HECTARES": 244.184000, "AREA": 0.000000 }, "bbox": [ 0.04159, 51.43231, 0.04159, 51.43231 ], "geometry": { "type": "Point", "coordinates": [ 0.04159, 51.43231 ] } },
{ "type": "Feature", "id": "E05000122", "properties": { "name": "Orpington Ward", "NUMBER": 161.000000, "NUMBER0": 797.000000, "POLYGON_ID": 117280.000000, "UNIT_ID":10782, "HECTARES": 425.616000, "AREA": 0.000000 }, "bbox": [ 0.10942, 51.37132, 0.10942, 51.37132 ], "geometry": { "type": "Point", "coordinates": [ 0.10942, 51.37132 ] } },
{ "type": "Feature", "id": "E05000115", "properties": { "name": "Cray Valley West Ward", "NUMBER": 162.000000, "NUMBER0": 798.000000, "POLYGON_ID": 117273.000000, "UNIT_ID":10761, "HECTARES": 393.850000, "AREA": 0.000000 }, "bbox": [ 0.10265, 51.40035, 0.10265, 51.40035 ], "geometry": { "type": "Point", "coordinates": [ 0.10265, 51.40035 ] } },
{ "type": "Feature", "id": "E05000114", "properties": { "name": "Cray Valley East Ward", "NUMBER": 163.000000, "NUMBER0": 799.000000, "POLYGON_ID": 117274.000000, "UNIT_ID":10762, "HECTARES": 1327.866000, "AREA": 0.000000 }, "bbox": [ 0.13166, 51.39167, 0.13166, 51.39167 ], "geometry": { "type": "Point", "coordinates": [ 0.13166, 51.39167 ] } },
{ "type": "Feature", "id": "E05000346", "properties": { "name": "Bedfont Ward", "NUMBER": 98.000000, "NUMBER0": 803.000000, "POLYGON_ID": 51131.000000, "UNIT_ID":11482, "HECTARES": 444.841000, "AREA": 0.000000 }, "bbox": [ -0.43994, 51.45041, -0.43994, 51.45041 ], "geometry": { "type": "Point", "coordinates": [ -0.43994, 51.45041 ] } },
{ "type": "Feature", "id": "E05000353", "properties": { "name": "Hanworth Ward", "NUMBER": 99.000000, "NUMBER0": 804.000000, "POLYGON_ID": 51122.000000, "UNIT_ID":11473, "HECTARES": 323.258000, "AREA": 0.000000 }, "bbox": [ -0.39147, 51.43251, -0.39147, 51.43251 ], "geometry": { "type": "Point", "coordinates": [ -0.39147, 51.43251 ] } },
{ "type": "Feature", "id": "E05000350", "properties": { "name": "Cranford Ward", "NUMBER": 102.000000, "NUMBER0": 805.000000, "POLYGON_ID": 51125.000000, "UNIT_ID":11476, "HECTARES": 272.630000, "AREA": 0.000000 }, "bbox": [ -0.40487, 51.47349, -0.40487, 51.47349 ], "geometry": { "type": "Point", "coordinates": [ -0.40487, 51.47349 ] } },
{ "type": "Feature", "id": "E05000364", "properties": { "name": "Syon Ward", "NUMBER": 120.000000, "NUMBER0": 806.000000, "POLYGON_ID": 117104.000000, "UNIT_ID":41858, "HECTARES": 285.378000, "AREA": 13.187000 }, "bbox": [ -0.31711, 51.47895, -0.31711, 51.47895 ], "geometry": { "type": "Point", "coordinates": [ -0.31711, 51.47895 ] } },
{ "type": "Feature", "id": "E05000357", "properties": { "name": "Heston West Ward", "NUMBER": 174.000000, "NUMBER0": 807.000000, "POLYGON_ID": 51133.000000, "UNIT_ID":11484, "HECTARES": 382.657000, "AREA": 0.000000 }, "bbox": [ -0.39736, 51.48804, -0.39736, 51.48804 ], "geometry": { "type": "Point", "coordinates": [ -0.39736, 51.48804 ] } },
{ "type": "Feature", "id": "E05000356", "properties": { "name": "Heston East Ward", "NUMBER": 175.000000, "NUMBER0": 808.000000, "POLYGON_ID": 117113.000000, "UNIT_ID":11491, "HECTARES": 205.913000, "AREA": 0.000000 }, "bbox": [ -0.37041, 51.48399, -0.37041, 51.48399 ], "geometry": { "type": "Point", "coordinates": [ -0.37041, 51.48399 ] } },
{ "type": "Feature", "id": "E05000363", "properties": { "name": "Osterley and Spring Grove Ward", "NUMBER": 176.000000, "NUMBER0": 809.000000, "POLYGON_ID": 117103.000000, "UNIT_ID":41856, "HECTARES": 627.784000, "AREA": 0.000000 }, "bbox": [ -0.34427, 51.48671, -0.34427, 51.48671 ], "geometry": { "type": "Point", "coordinates": [ -0.34427, 51.48671 ] } },
{ "type": "Feature", "id": "E05000347", "properties": { "name": "Brentford Ward", "NUMBER": 199.000000, "NUMBER0": 810.000000, "POLYGON_ID": 117105.000000, "UNIT_ID":11401, "HECTARES": 318.351000, "AREA": 3.263000 }, "bbox": [ -0.3017, 51.49272, -0.3017, 51.49272 ], "geometry": { "type": "Point", "coordinates": [ -0.3017, 51.49272 ] } },
{ "type": "Feature", "id": "E05000348", "properties": { "name": "Chiswick Homefields Ward", "NUMBER": 200.000000, "NUMBER0": 811.000000, "POLYGON_ID": 117106.000000, "UNIT_ID":11439, "HECTARES": 225.923000, "AREA": 22.286000 }, "bbox": [ -0.25433, 51.48394, -0.25433, 51.48394 ], "geometry": { "type": "Point", "coordinates": [ -0.25433, 51.48394 ] } },
{ "type": "Feature", "id": "E05000352", "properties": { "name": "Feltham West Ward", "NUMBER": 293.000000, "NUMBER0": 812.000000, "POLYGON_ID": 117107.000000, "UNIT_ID":11480, "HECTARES": 318.105000, "AREA": 0.000000 }, "bbox": [ -0.4281, 51.43926, -0.4281, 51.43926 ], "geometry": { "type": "Point", "coordinates": [ -0.4281, 51.43926 ] } },
{ "type": "Feature", "id": "E05000354", "properties": { "name": "Hanworth Park Ward", "NUMBER": 295.000000, "NUMBER0": 813.000000, "POLYGON_ID": 51123.000000, "UNIT_ID":11474, "HECTARES": 366.126000, "AREA": 0.000000 }, "bbox": [ -0.4023, 51.4404, -0.4023, 51.4404 ], "geometry": { "type": "Point", "coordinates": [ -0.4023, 51.4404 ] } },
{ "type": "Feature", "id": "E05000351", "properties": { "name": "Feltham North Ward", "NUMBER": 300.000000, "NUMBER0": 814.000000, "POLYGON_ID": 117102.000000, "UNIT_ID":11481, "HECTARES": 338.448000, "AREA": 0.000000 }, "bbox": [ -0.41077, 51.45769, -0.41077, 51.45769 ], "geometry": { "type": "Point", "coordinates": [ -0.41077, 51.45769 ] } },
{ "type": "Feature", "id": "E05000359", "properties": { "name": "Hounslow Heath Ward", "NUMBER": 301.000000, "NUMBER0": 815.000000, "POLYGON_ID": 117108.000000, "UNIT_ID":41857, "HECTARES": 278.178000, "AREA": 0.000000 }, "bbox": [ -0.38128, 51.45901, -0.38128, 51.45901 ], "geometry": { "type": "Point", "coordinates": [ -0.38128, 51.45901 ] } },
{ "type": "Feature", "id": "E05000361", "properties": { "name": "Hounslow West Ward", "NUMBER": 302.000000, "NUMBER0": 816.000000, "POLYGON_ID": 117109.000000, "UNIT_ID":11492, "HECTARES": 162.018000, "AREA": 0.000000 }, "bbox": [ -0.38313, 51.46839, -0.38313, 51.46839 ], "geometry": { "type": "Point", "coordinates": [ -0.38313, 51.46839 ] } },
{ "type": "Feature", "id": "E05000355", "properties": { "name": "Heston Central Ward", "NUMBER": 303.000000, "NUMBER0": 817.000000, "POLYGON_ID": 117112.000000, "UNIT_ID":11483, "HECTARES": 168.478000, "AREA": 0.000000 }, "bbox": [ -0.38081, 51.47888, -0.38081, 51.47888 ], "geometry": { "type": "Point", "coordinates": [ -0.38081, 51.47888 ] } },
{ "type": "Feature", "id": "E05000360", "properties": { "name": "Hounslow South Ward", "NUMBER": 304.000000, "NUMBER0": 818.000000, "POLYGON_ID": 117110.000000, "UNIT_ID":11486, "HECTARES": 179.011000, "AREA": 0.000000 }, "bbox": [ -0.35008, 51.46304, -0.35008, 51.46304 ], "geometry": { "type": "Point", "coordinates": [ -0.35008, 51.46304 ] } },
{ "type": "Feature", "id": "E05000362", "properties": { "name": "Isleworth Ward", "NUMBER": 306.000000, "NUMBER0": 819.000000, "POLYGON_ID": 117111.000000, "UNIT_ID":11496, "HECTARES": 203.089000, "AREA": 6.436000 }, "bbox": [ -0.33161, 51.46488, -0.33161, 51.46488 ], "geometry": { "type": "Point", "coordinates": [ -0.33161, 51.46488 ] } },
{ "type": "Feature", "id": "E05000358", "properties": { "name": "Hounslow Central Ward", "NUMBER": 307.000000, "NUMBER0": 820.000000, "POLYGON_ID": 117116.000000, "UNIT_ID":11488, "HECTARES": 173.393000, "AREA": 0.000000 }, "bbox": [ -0.35666, 51.47104, -0.35666, 51.47104 ], "geometry": { "type": "Point", "coordinates": [ -0.35666, 51.47104 ] } },
{ "type": "Feature", "id": "E05000349", "properties": { "name": "Chiswick Riverside Ward", "NUMBER": 349.000000, "NUMBER0": 821.000000, "POLYGON_ID": 117114.000000, "UNIT_ID":11436, "HECTARES": 208.007000, "AREA": 15.584000 }, "bbox": [ -0.27052, 51.48333, -0.27052, 51.48333 ], "geometry": { "type": "Point", "coordinates": [ -0.27052, 51.48333 ] } },
{ "type": "Feature", "id": "E05000365", "properties": { "name": "Turnham Green Ward", "NUMBER": 460.000000, "NUMBER0": 822.000000, "POLYGON_ID": 117115.000000, "UNIT_ID":11435, "HECTARES": 176.953000, "AREA": 0.000000 }, "bbox": [ -0.27045, 51.49287, -0.27045, 51.49287 ], "geometry": { "type": "Point", "coordinates": [ -0.27045, 51.49287 ] } },
{ "type": "Feature", "id": "E05000186", "properties": { "name": "Norwood Green Ward", "NUMBER": 177.000000, "NUMBER0": 825.000000, "POLYGON_ID": 116744.000000, "UNIT_ID":41797, "HECTARES": 379.609000, "AREA": 0.000000 }, "bbox": [ -0.36091, 51.50213, -0.36091, 51.50213 ], "geometry": { "type": "Point", "coordinates": [ -0.36091, 51.50213 ] } },
{ "type": "Feature", "id": "E05000190", "properties": { "name": "Southall Green Ward", "NUMBER": 178.000000, "NUMBER0": 826.000000, "POLYGON_ID": 51134.000000, "UNIT_ID":11485, "HECTARES": 158.616000, "AREA": 0.000000 }, "bbox": [ -0.38995, 51.50001, -0.38995, 51.50001 ], "geometry": { "type": "Point", "coordinates": [ -0.38995, 51.50001 ] } },
{ "type": "Feature", "id": "E05000185", "properties": { "name": "Northolt West End Ward", "NUMBER": 179.000000, "NUMBER0": 827.000000, "POLYGON_ID": 51089.000000, "UNIT_ID":11527, "HECTARES": 354.536000, "AREA": 0.000000 }, "bbox": [ -0.39411, 51.53828, -0.39411, 51.53828 ], "geometry": { "type": "Point", "coordinates": [ -0.39411, 51.53828 ] } },
{ "type": "Feature", "id": "E05000172", "properties": { "name": "Dormers Wells Ward", "NUMBER": 180.000000, "NUMBER0": 828.000000, "POLYGON_ID": 116745.000000, "UNIT_ID":11526, "HECTARES": 225.730000, "AREA": 0.000000 }, "bbox": [ -0.3616, 51.51586, -0.3616, 51.51586 ], "geometry": { "type": "Point", "coordinates": [ -0.3616, 51.51586 ] } },
{ "type": "Feature", "id": "E05000177", "properties": { "name": "Greenford Broadway Ward", "NUMBER": 181.000000, "NUMBER0": 829.000000, "POLYGON_ID": 116746.000000, "UNIT_ID":11522, "HECTARES": 251.669000, "AREA": 0.000000 }, "bbox": [ -0.3633, 51.5323, -0.3633, 51.5323 ], "geometry": { "type": "Point", "coordinates": [ -0.3633, 51.5323 ] } },
{ "type": "Feature", "id": "E05000183", "properties": { "name": "North Greenford Ward", "NUMBER": 186.000000, "NUMBER0": 830.000000, "POLYGON_ID": 71036.000000, "UNIT_ID":25231, "HECTARES": 325.737000, "AREA": 0.000000 }, "bbox": [ -0.33291, 51.55044, -0.33291, 51.55044 ], "geometry": { "type": "Point", "coordinates": [ -0.33291, 51.55044 ] } },
{ "type": "Feature", "id": "E05000182", "properties": { "name": "Northfield Ward", "NUMBER": 198.000000, "NUMBER0": 831.000000, "POLYGON_ID": 50524.000000, "UNIT_ID":11400, "HECTARES": 154.011000, "AREA": 0.000000 }, "bbox": [ -0.31519, 51.49844, -0.31519, 51.49844 ], "geometry": { "type": "Point", "coordinates": [ -0.31519, 51.49844 ] } },
{ "type": "Feature", "id": "E05000175", "properties": { "name": "East Acton Ward", "NUMBER": 201.000000, "NUMBER0": 832.000000, "POLYGON_ID": 116749.000000, "UNIT_ID":11499, "HECTARES": 427.588000, "AREA": 0.000000 }, "bbox": [ -0.26054, 51.52155, -0.26054, 51.52155 ], "geometry": { "type": "Point", "coordinates": [ -0.26054, 51.52155 ] } },
{ "type": "Feature", "id": "E05000189", "properties": { "name": "Southall Broadway Ward", "NUMBER": 439.000000, "NUMBER0": 833.000000, "POLYGON_ID": 51091.000000, "UNIT_ID":11529, "HECTARES": 161.725000, "AREA": 0.000000 }, "bbox": [ -0.38342, 51.50929, -0.38342, 51.50929 ], "geometry": { "type": "Point", "coordinates": [ -0.38342, 51.50929 ] } },
{ "type": "Feature", "id": "E05000176", "properties": { "name": "Elthorne Ward", "NUMBER": 440.000000, "NUMBER0": 834.000000, "POLYGON_ID": 51087.000000, "UNIT_ID":11525, "HECTARES": 199.963000, "AREA": 0.000000 }, "bbox": [ -0.33388, 51.50507, -0.33388, 51.50507 ], "geometry": { "type": "Point", "coordinates": [ -0.33388, 51.50507 ] } },
{ "type": "Feature", "id": "E05000192", "properties": { "name": "Walpole Ward", "NUMBER": 441.000000, "NUMBER0": 835.000000, "POLYGON_ID": 51112.000000, "UNIT_ID":11465, "HECTARES": 146.596000, "AREA": 0.000000 }, "bbox": [ -0.31552, 51.50686, -0.31552, 51.50686 ], "geometry": { "type": "Point", "coordinates": [ -0.31552, 51.50686 ] } },
{ "type": "Feature", "id": "E05000181", "properties": { "name": "Lady Margaret Ward", "NUMBER": 444.000000, "NUMBER0": 836.000000, "POLYGON_ID": 50955.000000, "UNIT_ID":11569, "HECTARES": 154.182000, "AREA": 0.000000 }, "bbox": [ -0.37061, 51.52304, -0.37061, 51.52304 ], "geometry": { "type": "Point", "coordinates": [ -0.37061, 51.52304 ] } },
{ "type": "Feature", "id": "E05000184", "properties": { "name": "Northolt Mandeville Ward", "NUMBER": 445.000000, "NUMBER0": 837.000000, "POLYGON_ID": 51013.000000, "UNIT_ID":11541, "HECTARES": 275.664000, "AREA": 0.000000 }, "bbox": [ -0.37167, 51.54849, -0.37167, 51.54849 ], "geometry": { "type": "Point", "coordinates": [ -0.37167, 51.54849 ] } },
{ "type": "Feature", "id": "E05000180", "properties": { "name": "Hobbayne Ward", "NUMBER": 446.000000, "NUMBER0": 838.000000, "POLYGON_ID": 51086.000000, "UNIT_ID":11524, "HECTARES": 220.937000, "AREA": 0.000000 }, "bbox": [ -0.34076, 51.51937, -0.34076, 51.51937 ], "geometry": { "type": "Point", "coordinates": [ -0.34076, 51.51937 ] } },
{ "type": "Feature", "id": "E05000171", "properties": { "name": "Cleveland Ward", "NUMBER": 447.000000, "NUMBER0": 839.000000, "POLYGON_ID": 50521.000000, "UNIT_ID":11397, "HECTARES": 222.856000, "AREA": 0.000000 }, "bbox": [ -0.32271, 51.52361, -0.32271, 51.52361 ], "geometry": { "type": "Point", "coordinates": [ -0.32271, 51.52361 ] } },
{ "type": "Feature", "id": "E05000178", "properties": { "name": "Greenford Green Ward", "NUMBER": 448.000000, "NUMBER0": 840.000000, "POLYGON_ID": 116747.000000, "UNIT_ID":11396, "HECTARES": 338.477000, "AREA": 0.000000 }, "bbox": [ -0.3486, 51.54231, -0.3486, 51.54231 ], "geometry": { "type": "Point", "coordinates": [ -0.3486, 51.54231 ] } },
{ "type": "Feature", "id": "E05000187", "properties": { "name": "Perivale Ward", "NUMBER": 449.000000, "NUMBER0": 841.000000, "POLYGON_ID": 51106.000000, "UNIT_ID":11459, "HECTARES": 336.775000, "AREA": 0.000000 }, "bbox": [ -0.32342, 51.53564, -0.32342, 51.53564 ], "geometry": { "type": "Point", "coordinates": [ -0.32342, 51.53564 ] } },
{ "type": "Feature", "id": "E05000174", "properties": { "name": "Ealing Common Ward", "NUMBER": 461.000000, "NUMBER0": 842.000000, "POLYGON_ID": 51111.000000, "UNIT_ID":11464, "HECTARES": 214.106000, "AREA": 0.000000 }, "bbox": [ -0.29546, 51.50686, -0.29546, 51.50686 ], "geometry": { "type": "Point", "coordinates": [ -0.29546, 51.50686 ] } },
{ "type": "Feature", "id": "E05000173", "properties": { "name": "Ealing Broadway Ward", "NUMBER": 462.000000, "NUMBER0": 843.000000, "POLYGON_ID": 51110.000000, "UNIT_ID":11463, "HECTARES": 185.676000, "AREA": 0.000000 }, "bbox": [ -0.30962, 51.51707, -0.30962, 51.51707 ], "geometry": { "type": "Point", "coordinates": [ -0.30962, 51.51707 ] } },
{ "type": "Feature", "id": "E05000188", "properties": { "name": "South Acton Ward", "NUMBER": 463.000000, "NUMBER0": 844.000000, "POLYGON_ID": 51062.000000, "UNIT_ID":11500, "HECTARES": 171.920000, "AREA": 0.000000 }, "bbox": [ -0.27739, 51.50661, -0.27739, 51.50661 ], "geometry": { "type": "Point", "coordinates": [ -0.27739, 51.50661 ] } },
{ "type": "Feature", "id": "E05000191", "properties": { "name": "Southfield Ward", "NUMBER": 464.000000, "NUMBER0": 845.000000, "POLYGON_ID": 116748.000000, "UNIT_ID":11434, "HECTARES": 142.869000, "AREA": 0.000000 }, "bbox": [ -0.26161, 51.50003, -0.26161, 51.50003 ], "geometry": { "type": "Point", "coordinates": [ -0.26161, 51.50003 ] } },
{ "type": "Feature", "id": "E05000170", "properties": { "name": "Acton Central Ward", "NUMBER": 465.000000, "NUMBER0": 846.000000, "POLYGON_ID": 51060.000000, "UNIT_ID":11498, "HECTARES": 177.463000, "AREA": 0.000000 }, "bbox": [ -0.27073, 51.51491, -0.27073, 51.51491 ], "geometry": { "type": "Point", "coordinates": [ -0.27073, 51.51491 ] } },
{ "type": "Feature", "id": "E05000179", "properties": { "name": "Hanger Hill Ward", "NUMBER": 474.000000, "NUMBER0": 847.000000, "POLYGON_ID": 50522.000000, "UNIT_ID":11398, "HECTARES": 327.724000, "AREA": 0.000000 }, "bbox": [ -0.29298, 51.52618, -0.29298, 51.52618 ], "geometry": { "type": "Point", "coordinates": [ -0.29298, 51.52618 ] } },
{ "type": "Feature", "id": "E05000323", "properties": { "name": "Upminster Ward", "NUMBER": 16.000000, "NUMBER0": 850.000000, "POLYGON_ID": 116694.000000, "UNIT_ID":10785, "HECTARES": 2253.736000, "AREA": 0.000000 }, "bbox": [ 0.27279, 51.54525, 0.27279, 51.54525 ], "geometry": { "type": "Point", "coordinates": [ 0.27279, 51.54525 ] } },
{ "type": "Feature", "id": "E05000318", "properties": { "name": "Rainham and Wennington Ward", "NUMBER": 94.000000, "NUMBER0": 852.000000, "POLYGON_ID": 50925.000000, "UNIT_ID":10793, "HECTARES": 1688.010000, "AREA": 154.284000 }, "bbox": [ 0.20771, 51.50974, 0.20771, 51.50974 ], "geometry": { "type": "Point", "coordinates": [ 0.20771, 51.50974 ] } },
{ "type": "Feature", "id": "E05000321", "properties": { "name": "South Hornchurch Ward", "NUMBER": 264.000000, "NUMBER0": 853.000000, "POLYGON_ID": 116695.000000, "UNIT_ID":10815, "HECTARES": 687.318000, "AREA": 56.479000 }, "bbox": [ 0.18005, 51.52351, 0.18005, 51.52351 ], "geometry": { "type": "Point", "coordinates": [ 0.18005, 51.52351 ] } },
{ "type": "Feature", "id": "E05000308", "properties": { "name": "Elm Park Ward", "NUMBER": 265.000000, "NUMBER0": 854.000000, "POLYGON_ID": 116696.000000, "UNIT_ID":10796, "HECTARES": 366.535000, "AREA": 0.000000 }, "bbox": [ 0.19711, 51.54209, 0.19711, 51.54209 ], "geometry": { "type": "Point", "coordinates": [ 0.19711, 51.54209 ] } },
{ "type": "Feature", "id": "E05000306", "properties": { "name": "Brooklands Ward", "NUMBER": 268.000000, "NUMBER0": 855.000000, "POLYGON_ID": 116702.000000, "UNIT_ID":10811, "HECTARES": 420.264000, "AREA": 0.000000 }, "bbox": [ 0.1651, 51.57288, 0.1651, 51.57288 ], "geometry": { "type": "Point", "coordinates": [ 0.1651, 51.57288 ] } },
{ "type": "Feature", "id": "E05000319", "properties": { "name": "Romford Town Ward", "NUMBER": 269.000000, "NUMBER0": 856.000000, "POLYGON_ID": 116703.000000, "UNIT_ID":10938, "HECTARES": 286.473000, "AREA": 0.000000 }, "bbox": [ 0.18869, 51.57726, 0.18869, 51.57726 ], "geometry": { "type": "Point", "coordinates": [ 0.18869, 51.57726 ] } },
{ "type": "Feature", "id": "E05000316", "properties": { "name": "Mawneys Ward", "NUMBER": 270.000000, "NUMBER0": 857.000000, "POLYGON_ID": 51287.000000, "UNIT_ID":10941, "HECTARES": 304.261000, "AREA": 0.000000 }, "bbox": [ 0.16007, 51.59144, 0.16007, 51.59144 ], "geometry": { "type": "Point", "coordinates": [ 0.16007, 51.59144 ] } },
{ "type": "Feature", "id": "E05000317", "properties": { "name": "Pettits Ward", "NUMBER": 271.000000, "NUMBER0": 858.000000, "POLYGON_ID": 116708.000000, "UNIT_ID":10939, "HECTARES": 395.457000, "AREA": 0.000000 }, "bbox": [ 0.18657, 51.59256, 0.18657, 51.59256 ], "geometry": { "type": "Point", "coordinates": [ 0.18657, 51.59256 ] } },
{ "type": "Feature", "id": "E05000311", "properties": { "name": "Hacton Ward", "NUMBER": 272.000000, "NUMBER0": 859.000000, "POLYGON_ID": 116704.000000, "UNIT_ID":10795, "HECTARES": 246.542000, "AREA": 0.000000 }, "bbox": [ 0.21902, 51.55049, 0.21902, 51.55049 ], "geometry": { "type": "Point", "coordinates": [ 0.21902, 51.55049 ] } },
{ "type": "Feature", "id": "E05000320", "properties": { "name": "St. Andrew's Ward", "NUMBER": 273.000000, "NUMBER0": 860.000000, "POLYGON_ID": 116705.000000, "UNIT_ID":10797, "HECTARES": 267.712000, "AREA": 0.000000 }, "bbox": [ 0.21747, 51.55979, 0.21747, 51.55979 ], "geometry": { "type": "Point", "coordinates": [ 0.21747, 51.55979 ] } },
{ "type": "Feature", "id": "E05000309", "properties": { "name": "Emerson Park Ward", "NUMBER": 274.000000, "NUMBER0": 861.000000, "POLYGON_ID": 116706.000000, "UNIT_ID":10803, "HECTARES": 464.243000, "AREA": 0.000000 }, "bbox": [ 0.23177, 51.57511, 0.23177, 51.57511 ], "geometry": { "type": "Point", "coordinates": [ 0.23177, 51.57511 ] } },
{ "type": "Feature", "id": "E05000322", "properties": { "name": "Squirrel's Heath Ward", "NUMBER": 275.000000, "NUMBER0": 862.000000, "POLYGON_ID": 116697.000000, "UNIT_ID":10804, "HECTARES": 265.147000, "AREA": 0.000000 }, "bbox": [ 0.21249, 51.58263, 0.21249, 51.58263 ], "geometry": { "type": "Point", "coordinates": [ 0.21249, 51.58263 ] } },
{ "type": "Feature", "id": "E05000312", "properties": { "name": "Harold Wood Ward", "NUMBER": 276.000000, "NUMBER0": 863.000000, "POLYGON_ID": 116699.000000, "UNIT_ID":10800, "HECTARES": 758.973000, "AREA": 0.000000 }, "bbox": [ 0.2466, 51.59229, 0.2466, 51.59229 ], "geometry": { "type": "Point", "coordinates": [ 0.2466, 51.59229 ] } },
{ "type": "Feature", "id": "E05000307", "properties": { "name": "Cranham Ward", "NUMBER": 277.000000, "NUMBER0": 864.000000, "POLYGON_ID": 116707.000000, "UNIT_ID":10799, "HECTARES": 655.501000, "AREA": 0.000000 }, "bbox": [ 0.26463, 51.56987, 0.26463, 51.56987 ], "geometry": { "type": "Point", "coordinates": [ 0.26463, 51.56987 ] } },
{ "type": "Feature", "id": "E05000313", "properties": { "name": "Havering Park Ward", "NUMBER": 289.000000, "NUMBER0": 865.000000, "POLYGON_ID": 116698.000000, "UNIT_ID":10808, "HECTARES": 978.330000, "AREA": 0.000000 }, "bbox": [ 0.17436, 51.61299, 0.17436, 51.61299 ], "geometry": { "type": "Point", "coordinates": [ 0.17436, 51.61299 ] } },
{ "type": "Feature", "id": "E05000314", "properties": { "name": "Heaton Ward", "NUMBER": 290.000000, "NUMBER0": 866.000000, "POLYGON_ID": 116700.000000, "UNIT_ID":10806, "HECTARES": 341.564000, "AREA": 0.000000 }, "bbox": [ 0.20889, 51.60473, 0.20889, 51.60473 ], "geometry": { "type": "Point", "coordinates": [ 0.20889, 51.60473 ] } },
{ "type": "Feature", "id": "E05000310", "properties": { "name": "Gooshays Ward", "NUMBER": 291.000000, "NUMBER0": 867.000000, "POLYGON_ID": 116701.000000, "UNIT_ID":10801, "HECTARES": 775.896000, "AREA": 0.000000 }, "bbox": [ 0.23119, 51.61493, 0.23119, 51.61493 ], "geometry": { "type": "Point", "coordinates": [ 0.23119, 51.61493 ] } },
{ "type": "Feature", "id": "E05000315", "properties": { "name": "Hylands Ward", "NUMBER": 644.000000, "NUMBER0": 868.000000, "POLYGON_ID": 50930.000000, "UNIT_ID":10798, "HECTARES": 289.774000, "AREA": 0.000000 }, "bbox": [ 0.19834, 51.56351, 0.19834, 51.56351 ], "geometry": { "type": "Point", "coordinates": [ 0.19834, 51.56351 ] } },
{ "type": "Feature", "id": "E05000331", "properties": { "name": "Heathrow Villages Ward", "NUMBER": 68.000000, "NUMBER0": 871.000000, "POLYGON_ID": 116716.000000, "UNIT_ID":11533, "HECTARES": 2352.117000, "AREA": 0.000000 }, "bbox": [ -0.45874, 51.47727, -0.45874, 51.47727 ], "geometry": { "type": "Point", "coordinates": [ -0.45874, 51.47727 ] } },
{ "type": "Feature", "id": "E05000330", "properties": { "name": "Harefield Ward", "NUMBER": 78.000000, "NUMBER0": 872.000000, "POLYGON_ID": 51039.000000, "UNIT_ID":11567, "HECTARES": 1522.704000, "AREA": 0.000000 }, "bbox": [ -0.47624, 51.59847, -0.47624, 51.59847 ], "geometry": { "type": "Point", "coordinates": [ -0.47624, 51.59847 ] } },
{ "type": "Feature", "id": "E05000342", "properties": { "name": "West Drayton Ward", "NUMBER": 168.000000, "NUMBER0": 873.000000, "POLYGON_ID": 116720.000000, "UNIT_ID":11565, "HECTARES": 349.070000, "AREA": 0.000000 }, "bbox": [ -0.47033, 51.50266, -0.47033, 51.50266 ], "geometry": { "type": "Point", "coordinates": [ -0.47033, 51.50266 ] } },
{ "type": "Feature", "id": "E05000345", "properties": { "name": "Yiewsley Ward", "NUMBER": 169.000000, "NUMBER0": 874.000000, "POLYGON_ID": 116722.000000, "UNIT_ID":11563, "HECTARES": 402.251000, "AREA": 0.000000 }, "bbox": [ -0.46611, 51.516, -0.46611, 51.516 ], "geometry": { "type": "Point", "coordinates": [ -0.46611, 51.516 ] } },
{ "type": "Feature", "id": "E05000341", "properties": { "name": "Uxbridge South Ward", "NUMBER": 170.000000, "NUMBER0": 875.000000, "POLYGON_ID": 116718.000000, "UNIT_ID":11566, "HECTARES": 311.447000, "AREA": 0.000000 }, "bbox": [ -0.48445, 51.53505, -0.48445, 51.53505 ], "geometry": { "type": "Point", "coordinates": [ -0.48445, 51.53505 ] } },
{ "type": "Feature", "id": "E05000326", "properties": { "name": "Brunel Ward", "NUMBER": 171.000000, "NUMBER0": 876.000000, "POLYGON_ID": 51033.000000, "UNIT_ID":11561, "HECTARES": 327.691000, "AREA": 0.000000 }, "bbox": [ -0.46413, 51.52814, -0.46413, 51.52814 ], "geometry": { "type": "Point", "coordinates": [ -0.46413, 51.52814 ] } },
{ "type": "Feature", "id": "E05000340", "properties": { "name": "Uxbridge North Ward", "NUMBER": 172.000000, "NUMBER0": 877.000000, "POLYGON_ID": 51032.000000, "UNIT_ID":11560, "HECTARES": 464.118000, "AREA": 0.000000 }, "bbox": [ -0.46463, 51.54698, -0.46463, 51.54698 ], "geometry": { "type": "Point", "coordinates": [ -0.46463, 51.54698 ] } },
{ "type": "Feature", "id": "E05000332", "properties": { "name": "Hillingdon East Ward", "NUMBER": 173.000000, "NUMBER0": 878.000000, "POLYGON_ID": 116723.000000, "UNIT_ID":11537, "HECTARES": 359.812000, "AREA": 0.000000 }, "bbox": [ -0.43791, 51.54251, -0.43791, 51.54251 ], "geometry": { "type": "Point", "coordinates": [ -0.43791, 51.54251 ] } },
{ "type": "Feature", "id": "E05000333", "properties": { "name": "Ickenham Ward", "NUMBER": 182.000000, "NUMBER0": 879.000000, "POLYGON_ID": 51031.000000, "UNIT_ID":11559, "HECTARES": 620.442000, "AREA": 0.000000 }, "bbox": [ -0.46035, 51.56481, -0.46035, 51.56481 ], "geometry": { "type": "Point", "coordinates": [ -0.46035, 51.56481 ] } },
{ "type": "Feature", "id": "E05000343", "properties": { "name": "West Ruislip Ward", "NUMBER": 183.000000, "NUMBER0": 880.000000, "POLYGON_ID": 51023.000000, "UNIT_ID":11551, "HECTARES": 438.740000, "AREA": 0.000000 }, "bbox": [ -0.43799, 51.5811, -0.43799, 51.5811 ], "geometry": { "type": "Point", "coordinates": [ -0.43799, 51.5811 ] } },
{ "type": "Feature", "id": "E05000335", "properties": { "name": "Northwood Ward", "NUMBER": 184.000000, "NUMBER0": 881.000000, "POLYGON_ID": 51029.000000, "UNIT_ID":11557, "HECTARES": 739.794000, "AREA": 0.000000 }, "bbox": [ -0.43668, 51.60579, -0.43668, 51.60579 ], "geometry": { "type": "Point", "coordinates": [ -0.43668, 51.60579 ] } },
{ "type": "Feature", "id": "E05000338", "properties": { "name": "South Ruislip Ward", "NUMBER": 185.000000, "NUMBER0": 882.000000, "POLYGON_ID": 116719.000000, "UNIT_ID":11552, "HECTARES": 741.795000, "AREA": 0.000000 }, "bbox": [ -0.40867, 51.55518, -0.40867, 51.55518 ], "geometry": { "type": "Point", "coordinates": [ -0.40867, 51.55518 ] } },
{ "type": "Feature", "id": "E05000334", "properties": { "name": "Manor Ward", "NUMBER": 190.000000, "NUMBER0": 883.000000, "POLYGON_ID": 51022.000000, "UNIT_ID":11550, "HECTARES": 197.418000, "AREA": 0.000000 }, "bbox": [ -0.41392, 51.56864, -0.41392, 51.56864 ], "geometry": { "type": "Point", "coordinates": [ -0.41392, 51.56864 ] } },
{ "type": "Feature", "id": "E05000329", "properties": { "name": "Eastcote and East Ruislip Ward", "NUMBER": 191.000000, "NUMBER0": 884.000000, "POLYGON_ID": 116724.000000, "UNIT_ID":11553, "HECTARES": 406.341000, "AREA": 0.000000 }, "bbox": [ -0.4123, 51.58318, -0.4123, 51.58318 ], "geometry": { "type": "Point", "coordinates": [ -0.4123, 51.58318 ] } },
{ "type": "Feature", "id": "E05000336", "properties": { "name": "Northwood Hills Ward", "NUMBER": 192.000000, "NUMBER0": 885.000000, "POLYGON_ID": 51028.000000, "UNIT_ID":11556, "HECTARES": 332.854000, "AREA": 0.000000 }, "bbox": [ -0.40959, 51.59884, -0.40959, 51.59884 ], "geometry": { "type": "Point", "coordinates": [ -0.40959, 51.59884 ] } },
{ "type": "Feature", "id": "E05000337", "properties": { "name": "Pinkwell Ward", "NUMBER": 435.000000, "NUMBER0": 886.000000, "POLYGON_ID": 116721.000000, "UNIT_ID":11532, "HECTARES": 274.833000, "AREA": 0.000000 }, "bbox": [ -0.43346, 51.49858, -0.43346, 51.49858 ], "geometry": { "type": "Point", "coordinates": [ -0.43346, 51.49858 ] } },
{ "type": "Feature", "id": "E05000325", "properties": { "name": "Botwell Ward", "NUMBER": 436.000000, "NUMBER0": 887.000000, "POLYGON_ID": 116717.000000, "UNIT_ID":11534, "HECTARES": 436.277000, "AREA": 0.000000 }, "bbox": [ -0.43314, 51.51233, -0.43314, 51.51233 ], "geometry": { "type": "Point", "coordinates": [ -0.43314, 51.51233 ] } },
{ "type": "Feature", "id": "E05000328", "properties": { "name": "Charville Ward", "NUMBER": 437.000000, "NUMBER0": 888.000000, "POLYGON_ID": 51098.000000, "UNIT_ID":11536, "HECTARES": 297.433000, "AREA": 0.000000 }, "bbox": [ -0.42679, 51.53227, -0.42679, 51.53227 ], "geometry": { "type": "Point", "coordinates": [ -0.42679, 51.53227 ] } },
{ "type": "Feature", "id": "E05000339", "properties": { "name": "Townfield Ward", "NUMBER": 438.000000, "NUMBER0": 889.000000, "POLYGON_ID": 51092.000000, "UNIT_ID":11530, "HECTARES": 349.833000, "AREA": 0.000000 }, "bbox": [ -0.40973, 51.51152, -0.40973, 51.51152 ], "geometry": { "type": "Point", "coordinates": [ -0.40973, 51.51152 ] } },
{ "type": "Feature", "id": "E05000324", "properties": { "name": "Barnhill Ward", "NUMBER": 442.000000, "NUMBER0": 890.000000, "POLYGON_ID": 51097.000000, "UNIT_ID":11535, "HECTARES": 211.821000, "AREA": 0.000000 }, "bbox": [ -0.40715, 51.52519, -0.40715, 51.52519 ], "geometry": { "type": "Point", "coordinates": [ -0.40715, 51.52519 ] } },
{ "type": "Feature", "id": "E05000344", "properties": { "name": "Yeading Ward", "NUMBER": 443.000000, "NUMBER0": 891.000000, "POLYGON_ID": 51090.000000, "UNIT_ID":11528, "HECTARES": 232.126000, "AREA": 0.000000 }, "bbox": [ -0.38911, 51.5232, -0.38911, 51.5232 ], "geometry": { "type": "Point", "coordinates": [ -0.38911, 51.5232 ] } },
{ "type": "Feature", "id": "E05000327", "properties": { "name": "Cavendish Ward", "NUMBER": 450.000000, "NUMBER0": 892.000000, "POLYGON_ID": 51021.000000, "UNIT_ID":11549, "HECTARES": 201.145000, "AREA": 0.000000 }, "bbox": [ -0.39655, 51.57032, -0.39655, 51.57032 ], "geometry": { "type": "Point", "coordinates": [ -0.39655, 51.57032 ] } },
{ "type": "Feature", "id": "E05000302", "properties": { "name": "Roxeth Ward", "NUMBER": 187.000000, "NUMBER0": 897.000000, "POLYGON_ID": 51083.000000, "UNIT_ID":11521, "HECTARES": 157.492000, "AREA": 0.000000 }, "bbox": [ -0.36448, 51.55962, -0.36448, 51.55962 ], "geometry": { "type": "Point", "coordinates": [ -0.36448, 51.55962 ] } },
{ "type": "Feature", "id": "E05000289", "properties": { "name": "Harrow on the Hill Ward", "NUMBER": 188.000000, "NUMBER0": 898.000000, "POLYGON_ID": 50518.000000, "UNIT_ID":11394, "HECTARES": 357.209000, "AREA": 0.000000 }, "bbox": [ -0.33992, 51.5683, -0.33992, 51.5683 ], "geometry": { "type": "Point", "coordinates": [ -0.33992, 51.5683 ] } },
{ "type": "Feature", "id": "E05000297", "properties": { "name": "Pinner Ward", "NUMBER": 193.000000, "NUMBER0": 899.000000, "POLYGON_ID": 51019.000000, "UNIT_ID":11547, "HECTARES": 327.742000, "AREA": 0.000000 }, "bbox": [ -0.38944, 51.60315, -0.38944, 51.60315 ], "geometry": { "type": "Point", "coordinates": [ -0.38944, 51.60315 ] } },
{ "type": "Feature", "id": "E05000298", "properties": { "name": "Pinner South Ward", "NUMBER": 194.000000, "NUMBER0": 900.000000, "POLYGON_ID": 51020.000000, "UNIT_ID":11548, "HECTARES": 234.561000, "AREA": 0.000000 }, "bbox": [ -0.38515, 51.5858, -0.38515, 51.5858 ], "geometry": { "type": "Point", "coordinates": [ -0.38515, 51.5858 ] } },
{ "type": "Feature", "id": "E05000288", "properties": { "name": "Greenhill Ward", "NUMBER": 195.000000, "NUMBER0": 901.000000, "POLYGON_ID": 51077.000000, "UNIT_ID":11515, "HECTARES": 174.490000, "AREA": 0.000000 }, "bbox": [ -0.33201, 51.58211, -0.33201, 51.58211 ], "geometry": { "type": "Point", "coordinates": [ -0.33201, 51.58211 ] } },
{ "type": "Feature", "id": "E05000292", "properties": { "name": "Headstone North Ward", "NUMBER": 196.000000, "NUMBER0": 902.000000, "POLYGON_ID": 51027.000000, "UNIT_ID":11555, "HECTARES": 329.634000, "AREA": 0.000000 }, "bbox": [ -0.36408, 51.59431, -0.36408, 51.59431 ], "geometry": { "type": "Point", "coordinates": [ -0.36408, 51.59431 ] } },
{ "type": "Feature", "id": "E05000296", "properties": { "name": "Marlborough Ward", "NUMBER": 197.000000, "NUMBER0": 903.000000, "POLYGON_ID": 51078.000000, "UNIT_ID":11516, "HECTARES": 164.663000, "AREA": 0.000000 }, "bbox": [ -0.33439, 51.59286, -0.33439, 51.59286 ], "geometry": { "type": "Point", "coordinates": [ -0.33439, 51.59286 ] } },
{ "type": "Feature", "id": "E05000290", "properties": { "name": "Harrow Weald Ward", "NUMBER": 222.000000, "NUMBER0": 904.000000, "POLYGON_ID": 51015.000000, "UNIT_ID":11543, "HECTARES": 458.973000, "AREA": 0.000000 }, "bbox": [ -0.34696, 51.61444, -0.34696, 51.61444 ], "geometry": { "type": "Point", "coordinates": [ -0.34696, 51.61444 ] } },
{ "type": "Feature", "id": "E05000303", "properties": { "name": "Stanmore Park Ward", "NUMBER": 223.000000, "NUMBER0": 905.000000, "POLYGON_ID": 50516.000000, "UNIT_ID":11392, "HECTARES": 445.929000, "AREA": 0.000000 }, "bbox": [ -0.3248, 51.61813, -0.3248, 51.61813 ], "geometry": { "type": "Point", "coordinates": [ -0.3248, 51.61813 ] } },
{ "type": "Feature", "id": "E05000286", "properties": { "name": "Canons Ward", "NUMBER": 224.000000, "NUMBER0": 906.000000, "POLYGON_ID": 116972.000000, "UNIT_ID":11544, "HECTARES": 562.632000, "AREA": 0.000000 }, "bbox": [ -0.3057, 51.62301, -0.3057, 51.62301 ], "geometry": { "type": "Point", "coordinates": [ -0.3057, 51.62301 ] } },
{ "type": "Feature", "id": "E05000300", "properties": { "name": "Rayners Lane Ward", "NUMBER": 451.000000, "NUMBER0": 907.000000, "POLYGON_ID": 50957.000000, "UNIT_ID":11570, "HECTARES": 152.974000, "AREA": 0.000000 }, "bbox": [ -0.37584, 51.57381, -0.37584, 51.57381 ], "geometry": { "type": "Point", "coordinates": [ -0.37584, 51.57381 ] } },
{ "type": "Feature", "id": "E05000301", "properties": { "name": "Roxbourne Ward", "NUMBER": 452.000000, "NUMBER0": 908.000000, "POLYGON_ID": 51082.000000, "UNIT_ID":11520, "HECTARES": 150.576000, "AREA": 0.000000 }, "bbox": [ -0.36773, 51.56609, -0.36773, 51.56609 ], "geometry": { "type": "Point", "coordinates": [ -0.36773, 51.56609 ] } },
{ "type": "Feature", "id": "E05000305", "properties": { "name": "West Harrow Ward", "NUMBER": 454.000000, "NUMBER0": 909.000000, "POLYGON_ID": 51026.000000, "UNIT_ID":11554, "HECTARES": 151.462000, "AREA": 0.000000 }, "bbox": [ -0.35732, 51.57779, -0.35732, 51.57779 ], "geometry": { "type": "Point", "coordinates": [ -0.35732, 51.57779 ] } },
{ "type": "Feature", "id": "E05000291", "properties": { "name": "Hatch End Ward", "NUMBER": 455.000000, "NUMBER0": 910.000000, "POLYGON_ID": 51014.000000, "UNIT_ID":11542, "HECTARES": 327.866000, "AREA": 0.000000 }, "bbox": [ -0.37135, 51.61013, -0.37135, 51.61013 ], "geometry": { "type": "Point", "coordinates": [ -0.37135, 51.61013 ] } },
{ "type": "Feature", "id": "E05000293", "properties": { "name": "Headstone South Ward", "NUMBER": 456.000000, "NUMBER0": 911.000000, "POLYGON_ID": 51080.000000, "UNIT_ID":11518, "HECTARES": 146.764000, "AREA": 0.000000 }, "bbox": [ -0.35111, 51.58677, -0.35111, 51.58677 ], "geometry": { "type": "Point", "coordinates": [ -0.35111, 51.58677 ] } },
{ "type": "Feature", "id": "E05000295", "properties": { "name": "Kenton West Ward", "NUMBER": 457.000000, "NUMBER0": 912.000000, "POLYGON_ID": 50514.000000, "UNIT_ID":11390, "HECTARES": 176.456000, "AREA": 0.000000 }, "bbox": [ -0.31614, 51.59075, -0.31614, 51.59075 ], "geometry": { "type": "Point", "coordinates": [ -0.31614, 51.59075 ] } },
{ "type": "Feature", "id": "E05000304", "properties": { "name": "Wealdstone Ward", "NUMBER": 458.000000, "NUMBER0": 913.000000, "POLYGON_ID": 51079.000000, "UNIT_ID":11517, "HECTARES": 119.595000, "AREA": 0.000000 }, "bbox": [ -0.33711, 51.59983, -0.33711, 51.59983 ], "geometry": { "type": "Point", "coordinates": [ -0.33711, 51.59983 ] } },
{ "type": "Feature", "id": "E05000285", "properties": { "name": "Belmont Ward", "NUMBER": 459.000000, "NUMBER0": 914.000000, "POLYGON_ID": 116973.000000, "UNIT_ID":11393, "HECTARES": 177.704000, "AREA": 0.000000 }, "bbox": [ -0.31003, 51.60445, -0.31003, 51.60445 ], "geometry": { "type": "Point", "coordinates": [ -0.31003, 51.60445 ] } },
{ "type": "Feature", "id": "E05000294", "properties": { "name": "Kenton East Ward", "NUMBER": 518.000000, "NUMBER0": 915.000000, "POLYGON_ID": 50511.000000, "UNIT_ID":11387, "HECTARES": 127.926000, "AREA": 0.000000 }, "bbox": [ -0.29512, 51.5904, -0.29512, 51.5904 ], "geometry": { "type": "Point", "coordinates": [ -0.29512, 51.5904 ] } },
{ "type": "Feature", "id": "E05000299", "properties": { "name": "Queensbury Ward", "NUMBER": 520.000000, "NUMBER0": 916.000000, "POLYGON_ID": 116974.000000, "UNIT_ID":41832, "HECTARES": 161.364000, "AREA": 0.000000 }, "bbox": [ -0.29636, 51.59822, -0.29636, 51.59822 ], "geometry": { "type": "Point", "coordinates": [ -0.29636, 51.59822 ] } },
{ "type": "Feature", "id": "E05000287", "properties": { "name": "Edgware Ward", "NUMBER": 521.000000, "NUMBER0": 917.000000, "POLYGON_ID": 116975.000000, "UNIT_ID":41833, "HECTARES": 140.319000, "AREA": 0.000000 }, "bbox": [ -0.27961, 51.60314, -0.27961, 51.60314 ], "geometry": { "type": "Point", "coordinates": [ -0.27961, 51.60314 ] } },
{ "type": "Feature", "id": "E05000096", "properties": { "name": "Northwick Park Ward", "NUMBER": 189.000000, "NUMBER0": 920.000000, "POLYGON_ID": 51109.000000, "UNIT_ID":11462, "HECTARES": 267.991000, "AREA": 0.000000 }, "bbox": [ -0.31796, 51.56903, -0.31796, 51.56903 ], "geometry": { "type": "Point", "coordinates": [ -0.31796, 51.56903 ] } },
{ "type": "Feature", "id": "E05000104", "properties": { "name": "Wembley Central Ward", "NUMBER": 204.000000, "NUMBER0": 921.000000, "POLYGON_ID": 51105.000000, "UNIT_ID":11458, "HECTARES": 160.424000, "AREA": 0.000000 }, "bbox": [ -0.29726, 51.54998, -0.29726, 51.54998 ], "geometry": { "type": "Point", "coordinates": [ -0.29726, 51.54998 ] } },
{ "type": "Feature", "id": "E05000097", "properties": { "name": "Preston Ward", "NUMBER": 205.000000, "NUMBER0": 922.000000, "POLYGON_ID": 51071.000000, "UNIT_ID":11509, "HECTARES": 238.828000, "AREA": 0.000000 }, "bbox": [ -0.29709, 51.56615, -0.29709, 51.56615 ], "geometry": { "type": "Point", "coordinates": [ -0.29709, 51.56615 ] } },
{ "type": "Feature", "id": "E05000100", "properties": { "name": "Stonebridge Ward", "NUMBER": 206.000000, "NUMBER0": 923.000000, "POLYGON_ID": 116943.000000, "UNIT_ID":11508, "HECTARES": 405.063000, "AREA": 0.000000 }, "bbox": [ -0.26687, 51.54201, -0.26687, 51.54201 ], "geometry": { "type": "Point", "coordinates": [ -0.26687, 51.54201 ] } },
{ "type": "Feature", "id": "E05000103", "properties": { "name": "Welsh Harp Ward", "NUMBER": 207.000000, "NUMBER0": 924.000000, "POLYGON_ID": 116949.000000, "UNIT_ID":41828, "HECTARES": 231.897000, "AREA": 0.000000 }, "bbox": [ -0.25781, 51.56657, -0.25781, 51.56657 ], "geometry": { "type": "Point", "coordinates": [ -0.25781, 51.56657 ] } },
{ "type": "Feature", "id": "E05000086", "properties": { "name": "Barnhill Ward", "NUMBER": 208.000000, "NUMBER0": 925.000000, "POLYGON_ID": 116945.000000, "UNIT_ID":11506, "HECTARES": 297.908000, "AREA": 0.000000 }, "bbox": [ -0.27951, 51.57113, -0.27951, 51.57113 ], "geometry": { "type": "Point", "coordinates": [ -0.27951, 51.57113 ] } },
{ "type": "Feature", "id": "E05000090", "properties": { "name": "Fryent Ward", "NUMBER": 209.000000, "NUMBER0": 926.000000, "POLYGON_ID": 116950.000000, "UNIT_ID":11512, "HECTARES": 265.938000, "AREA": 0.000000 }, "bbox": [ -0.26511, 51.58206, -0.26511, 51.58206 ], "geometry": { "type": "Point", "coordinates": [ -0.26511, 51.58206 ] } },
{ "type": "Feature", "id": "E05000101", "properties": { "name": "Sudbury Ward", "NUMBER": 453.000000, "NUMBER0": 927.000000, "POLYGON_ID": 116944.000000, "UNIT_ID":11461, "HECTARES": 212.480000, "AREA": 0.000000 }, "bbox": [ -0.31494, 51.55621, -0.31494, 51.55621 ], "geometry": { "type": "Point", "coordinates": [ -0.31494, 51.55621 ] } },
{ "type": "Feature", "id": "E05000085", "properties": { "name": "Alperton Ward", "NUMBER": 475.000000, "NUMBER0": 928.000000, "POLYGON_ID": 51069.000000, "UNIT_ID":11507, "HECTARES": 205.853000, "AREA": 0.000000 }, "bbox": [ -0.29451, 51.54047, -0.29451, 51.54047 ], "geometry": { "type": "Point", "coordinates": [ -0.29451, 51.54047 ] } },
{ "type": "Feature", "id": "E05000092", "properties": { "name": "Kensal Green Ward", "NUMBER": 478.000000, "NUMBER0": 929.000000, "POLYGON_ID": 116951.000000, "UNIT_ID":11501, "HECTARES": 112.008000, "AREA": 0.000000 }, "bbox": [ -0.23678, 51.53498, -0.23678, 51.53498 ], "geometry": { "type": "Point", "coordinates": [ -0.23678, 51.53498 ] } },
{ "type": "Feature", "id": "E05000091", "properties": { "name": "Harlesden Ward", "NUMBER": 479.000000, "NUMBER0": 930.000000, "POLYGON_ID": 116952.000000, "UNIT_ID":11502, "HECTARES": 111.370000, "AREA": 0.000000 }, "bbox": [ -0.25073, 51.54094, -0.25073, 51.54094 ], "geometry": { "type": "Point", "coordinates": [ -0.25073, 51.54094 ] } },
{ "type": "Feature", "id": "E05000105", "properties": { "name": "Willesden Green Ward", "NUMBER": 480.000000, "NUMBER0": 931.000000, "POLYGON_ID": 50490.000000, "UNIT_ID":11452, "HECTARES": 154.803000, "AREA": 0.000000 }, "bbox": [ -0.23496, 51.54552, -0.23496, 51.54552 ], "geometry": { "type": "Point", "coordinates": [ -0.23496, 51.54552 ] } },
{ "type": "Feature", "id": "E05000098", "properties": { "name": "Queens Park Ward", "NUMBER": 481.000000, "NUMBER0": 932.000000, "POLYGON_ID": 116947.000000, "UNIT_ID":11344, "HECTARES": 148.562000, "AREA": 0.000000 }, "bbox": [ -0.21378, 51.53517, -0.21378, 51.53517 ], "geometry": { "type": "Point", "coordinates": [ -0.21378, 51.53517 ] } },
{ "type": "Feature", "id": "E05000087", "properties": { "name": "Brondesbury Park Ward", "NUMBER": 482.000000, "NUMBER0": 933.000000, "POLYGON_ID": 116953.000000, "UNIT_ID":11337, "HECTARES": 172.942000, "AREA": 0.000000 }, "bbox": [ -0.21889, 51.54288, -0.21889, 51.54288 ], "geometry": { "type": "Point", "coordinates": [ -0.21889, 51.54288 ] } },
{ "type": "Feature", "id": "E05000094", "properties": { "name": "Kilburn Ward", "NUMBER": 500.000000, "NUMBER0": 934.000000, "POLYGON_ID": 50487.000000, "UNIT_ID":11449, "HECTARES": 94.400000, "AREA": 0.000000 }, "bbox": [ -0.19867, 51.53689, -0.19867, 51.53689 ], "geometry": { "type": "Point", "coordinates": [ -0.19867, 51.53689 ] } },
{ "type": "Feature", "id": "E05000102", "properties": { "name": "Tokyngton Ward", "NUMBER": 513.000000, "NUMBER0": 935.000000, "POLYGON_ID": 51104.000000, "UNIT_ID":11457, "HECTARES": 275.917000, "AREA": 0.000000 }, "bbox": [ -0.27846, 51.55374, -0.27846, 51.55374 ], "geometry": { "type": "Point", "coordinates": [ -0.27846, 51.55374 ] } },
{ "type": "Feature", "id": "E05000093", "properties": { "name": "Kenton Ward", "NUMBER": 514.000000, "NUMBER0": 936.000000, "POLYGON_ID": 116946.000000, "UNIT_ID":11514, "HECTARES": 224.315000, "AREA": 0.000000 }, "bbox": [ -0.29992, 51.58134, -0.29992, 51.58134 ], "geometry": { "type": "Point", "coordinates": [ -0.29992, 51.58134 ] } },
{ "type": "Feature", "id": "E05000089", "properties": { "name": "Dudden Hill Ward", "NUMBER": 515.000000, "NUMBER0": 937.000000, "POLYGON_ID": 116948.000000, "UNIT_ID":11454, "HECTARES": 168.144000, "AREA": 0.000000 }, "bbox": [ -0.24158, 51.55422, -0.24158, 51.55422 ], "geometry": { "type": "Point", "coordinates": [ -0.24158, 51.55422 ] } },
{ "type": "Feature", "id": "E05000088", "properties": { "name": "Dollis Hill Ward", "NUMBER": 516.000000, "NUMBER0": 938.000000, "POLYGON_ID": 50548.000000, "UNIT_ID":11336, "HECTARES": 229.956000, "AREA": 0.000000 }, "bbox": [ -0.23656, 51.56434, -0.23656, 51.56434 ], "geometry": { "type": "Point", "coordinates": [ -0.23656, 51.56434 ] } },
{ "type": "Feature", "id": "E05000095", "properties": { "name": "Mapesbury Ward", "NUMBER": 517.000000, "NUMBER0": 939.000000, "POLYGON_ID": 50489.000000, "UNIT_ID":11451, "HECTARES": 139.347000, "AREA": 0.000000 }, "bbox": [ -0.21873, 51.55381, -0.21873, 51.55381 ], "geometry": { "type": "Point", "coordinates": [ -0.21873, 51.55381 ] } },
{ "type": "Feature", "id": "E05000099", "properties": { "name": "Queensbury Ward", "NUMBER": 519.000000, "NUMBER0": 940.000000, "POLYGON_ID": 50512.000000, "UNIT_ID":11388, "HECTARES": 205.124000, "AREA": 0.000000 }, "bbox": [ -0.27298, 51.59234, -0.27298, 51.59234 ], "geometry": { "type": "Point", "coordinates": [ -0.27298, 51.59234 ] } },
{ "type": "Feature", "id": "E05000060", "properties": { "name": "Underhill Ward", "NUMBER": 79.000000, "NUMBER0": 944.000000, "POLYGON_ID": 116789.000000, "UNIT_ID":41806, "HECTARES": 455.053000, "AREA": 0.000000 }, "bbox": [ -0.21874, 51.64421, -0.21874, 51.64421 ], "geometry": { "type": "Point", "coordinates": [ -0.21874, 51.64421 ] } },
{ "type": "Feature", "id": "E05000056", "properties": { "name": "High Barnet Ward", "NUMBER": 80.000000, "NUMBER0": 945.000000, "POLYGON_ID": 116787.000000, "UNIT_ID":11546, "HECTARES": 830.666000, "AREA": 0.000000 }, "bbox": [ -0.21253, 51.65492, -0.21253, 51.65492 ], "geometry": { "type": "Point", "coordinates": [ -0.21253, 51.65492 ] } },
{ "type": "Feature", "id": "E05000062", "properties": { "name": "West Hendon Ward", "NUMBER": 210.000000, "NUMBER0": 946.000000, "POLYGON_ID": 51065.000000, "UNIT_ID":11503, "HECTARES": 342.865000, "AREA": 0.000000 }, "bbox": [ -0.23536, 51.57838, -0.23536, 51.57838 ], "geometry": { "type": "Point", "coordinates": [ -0.23536, 51.57838 ] } },
{ "type": "Feature", "id": "E05000053", "properties": { "name": "Golders Green Ward", "NUMBER": 211.000000, "NUMBER0": 947.000000, "POLYGON_ID": 116790.000000, "UNIT_ID":11367, "HECTARES": 297.292000, "AREA": 0.000000 }, "bbox": [ -0.2127, 51.57482, -0.2127, 51.57482 ], "geometry": { "type": "Point", "coordinates": [ -0.2127, 51.57482 ] } },
{ "type": "Feature", "id": "E05000046", "properties": { "name": "Colindale Ward", "NUMBER": 212.000000, "NUMBER0": 948.000000, "POLYGON_ID": 51066.000000, "UNIT_ID":11504, "HECTARES": 263.627000, "AREA": 0.000000 }, "bbox": [ -0.24558, 51.59407, -0.24558, 51.59407 ], "geometry": { "type": "Point", "coordinates": [ -0.24558, 51.59407 ] } },
{ "type": "Feature", "id": "E05000045", "properties": { "name": "Childs Hill Ward", "NUMBER": 213.000000, "NUMBER0": 949.000000, "POLYGON_ID": 50578.000000, "UNIT_ID":11366, "HECTARES": 309.301000, "AREA": 0.000000 }, "bbox": [ -0.20265, 51.56508, -0.20265, 51.56508 ], "geometry": { "type": "Point", "coordinates": [ -0.20265, 51.56508 ] } },
{ "type": "Feature", "id": "E05000052", "properties": { "name": "Garden Suburb Ward", "NUMBER": 215.000000, "NUMBER0": 950.000000, "POLYGON_ID": 119325.000000, "UNIT_ID":11362, "HECTARES": 472.705000, "AREA": 0.000000 }, "bbox": [ -0.18331, 51.58097, -0.18331, 51.58097 ], "geometry": { "type": "Point", "coordinates": [ -0.18331, 51.58097 ] } },
{ "type": "Feature", "id": "E05000051", "properties": { "name": "Finchley Church End Ward", "NUMBER": 216.000000, "NUMBER0": 951.000000, "POLYGON_ID": 116791.000000, "UNIT_ID":11381, "HECTARES": 272.564000, "AREA": 0.000000 }, "bbox": [ -0.20117, 51.59628, -0.20117, 51.59628 ], "geometry": { "type": "Point", "coordinates": [ -0.20117, 51.59628 ] } },
{ "type": "Feature", "id": "E05000049", "properties": { "name": "East Finchley Ward", "NUMBER": 219.000000, "NUMBER0": 952.000000, "POLYGON_ID": 50492.000000, "UNIT_ID":11368, "HECTARES": 250.989000, "AREA": 0.000000 }, "bbox": [ -0.16894, 51.59505, -0.16894, 51.59505 ], "geometry": { "type": "Point", "coordinates": [ -0.16894, 51.59505 ] } },
{ "type": "Feature", "id": "E05000050", "properties": { "name": "Edgware Ward", "NUMBER": 225.000000, "NUMBER0": 953.000000, "POLYGON_ID": 50509.000000, "UNIT_ID":11385, "HECTARES": 555.652000, "AREA": 0.000000 }, "bbox": [ -0.28174, 51.62637, -0.28174, 51.62637 ], "geometry": { "type": "Point", "coordinates": [ -0.28174, 51.62637 ] } },
{ "type": "Feature", "id": "E05000057", "properties": { "name": "Mill Hill Ward", "NUMBER": 226.000000, "NUMBER0": 954.000000, "POLYGON_ID": 116788.000000, "UNIT_ID":11334, "HECTARES": 938.921000, "AREA": 0.000000 }, "bbox": [ -0.22466, 51.61385, -0.22466, 51.61385 ], "geometry": { "type": "Point", "coordinates": [ -0.22466, 51.61385 ] } },
{ "type": "Feature", "id": "E05000054", "properties": { "name": "Hale Ward", "NUMBER": 227.000000, "NUMBER0": 955.000000, "POLYGON_ID": 116792.000000, "UNIT_ID":11384, "HECTARES": 542.315000, "AREA": 0.000000 }, "bbox": [ -0.25678, 51.62611, -0.25678, 51.62611 ], "geometry": { "type": "Point", "coordinates": [ -0.25678, 51.62611 ] } },
{ "type": "Feature", "id": "E05000059", "properties": { "name": "Totteridge Ward", "NUMBER": 228.000000, "NUMBER0": 956.000000, "POLYGON_ID": 123573.000000, "UNIT_ID":11545, "HECTARES": 877.446000, "AREA": 0.000000 }, "bbox": [ -0.20118, 51.62986, -0.20118, 51.62986 ], "geometry": { "type": "Point", "coordinates": [ -0.20118, 51.62986 ] } },
{ "type": "Feature", "id": "E05000058", "properties": { "name": "Oakleigh Ward", "NUMBER": 229.000000, "NUMBER0": 957.000000, "POLYGON_ID": 50501.000000, "UNIT_ID":11377, "HECTARES": 331.861000, "AREA": 0.000000 }, "bbox": [ -0.17069, 51.63432, -0.17069, 51.63432 ], "geometry": { "type": "Point", "coordinates": [ -0.17069, 51.63432 ] } },
{ "type": "Feature", "id": "E05000063", "properties": { "name": "Woodhouse Ward", "NUMBER": 230.000000, "NUMBER0": 958.000000, "POLYGON_ID": 116794.000000, "UNIT_ID":11379, "HECTARES": 262.117000, "AREA": 0.000000 }, "bbox": [ -0.17177, 51.61092, -0.17177, 51.61092 ], "geometry": { "type": "Point", "coordinates": [ -0.17177, 51.61092 ] } },
{ "type": "Feature", "id": "E05000047", "properties": { "name": "Coppetts Ward", "NUMBER": 231.000000, "NUMBER0": 959.000000, "POLYGON_ID": 116795.000000, "UNIT_ID":41805, "HECTARES": 272.058000, "AREA": 0.000000 }, "bbox": [ -0.15185, 51.61119, -0.15185, 51.61119 ], "geometry": { "type": "Point", "coordinates": [ -0.15185, 51.61119 ] } },
{ "type": "Feature", "id": "E05000043", "properties": { "name": "Brunswick Park Ward", "NUMBER": 232.000000, "NUMBER0": 960.000000, "POLYGON_ID": 50500.000000, "UNIT_ID":11376, "HECTARES": 317.526000, "AREA": 0.000000 }, "bbox": [ -0.14488, 51.62859, -0.14488, 51.62859 ], "geometry": { "type": "Point", "coordinates": [ -0.14488, 51.62859 ] } },
{ "type": "Feature", "id": "E05000048", "properties": { "name": "East Barnet Ward", "NUMBER": 234.000000, "NUMBER0": 961.000000, "POLYGON_ID": 50507.000000, "UNIT_ID":11383, "HECTARES": 374.943000, "AREA": 0.000000 }, "bbox": [ -0.16103, 51.64674, -0.16103, 51.64674 ], "geometry": { "type": "Point", "coordinates": [ -0.16103, 51.64674 ] } },
{ "type": "Feature", "id": "E05000044", "properties": { "name": "Burnt Oak Ward", "NUMBER": 522.000000, "NUMBER0": 962.000000, "POLYGON_ID": 51073.000000, "UNIT_ID":11511, "HECTARES": 206.719000, "AREA": 0.000000 }, "bbox": [ -0.25967, 51.60353, -0.25967, 51.60353 ], "geometry": { "type": "Point", "coordinates": [ -0.25967, 51.60353 ] } },
{ "type": "Feature", "id": "E05000055", "properties": { "name": "Hendon Ward", "NUMBER": 523.000000, "NUMBER0": 963.000000, "POLYGON_ID": 50547.000000, "UNIT_ID":11335, "HECTARES": 283.871000, "AREA": 0.000000 }, "bbox": [ -0.22438, 51.59113, -0.22438, 51.59113 ], "geometry": { "type": "Point", "coordinates": [ -0.22438, 51.59113 ] } },
{ "type": "Feature", "id": "E05000061", "properties": { "name": "West Finchley Ward", "NUMBER": 536.000000, "NUMBER0": 964.000000, "POLYGON_ID": 116793.000000, "UNIT_ID":11380, "HECTARES": 216.344000, "AREA": 0.000000 }, "bbox": [ -0.18737, 51.60715, -0.18737, 51.60715 ], "geometry": { "type": "Point", "coordinates": [ -0.18737, 51.60715 ] } },
{ "type": "Feature", "id": "E05000431", "properties": { "name": "Streatham South Ward", "NUMBER": 116.000000, "NUMBER0": 967.000000, "POLYGON_ID": 50786.000000, "UNIT_ID":11138, "HECTARES": 169.809000, "AREA": 0.000000 }, "bbox": [ -0.13038, 51.41738, -0.13038, 51.41738 ], "geometry": { "type": "Point", "coordinates": [ -0.13038, 51.41738 ] } },
{ "type": "Feature", "id": "E05000428", "properties": { "name": "St. Leonard's Ward", "NUMBER": 362.000000, "NUMBER0": 968.000000, "POLYGON_ID": 51191.000000, "UNIT_ID":11021, "HECTARES": 144.773000, "AREA": 0.000000 }, "bbox": [ -0.1335, 51.42983, -0.1335, 51.42983 ], "geometry": { "type": "Point", "coordinates": [ -0.1335, 51.42983 ] } },
{ "type": "Feature", "id": "E05000432", "properties": { "name": "Streatham Wells Ward", "NUMBER": 363.000000, "NUMBER0": 969.000000, "POLYGON_ID": 51190.000000, "UNIT_ID":11020, "HECTARES": 144.978000, "AREA": 0.000000 }, "bbox": [ -0.12188, 51.42998, -0.12188, 51.42998 ], "geometry": { "type": "Point", "coordinates": [ -0.12188, 51.42998 ] } },
{ "type": "Feature", "id": "E05000424", "properties": { "name": "Knight's Hill Ward", "NUMBER": 364.000000, "NUMBER0": 970.000000, "POLYGON_ID": 117361.000000, "UNIT_ID":11139, "HECTARES": 147.166000, "AREA": 0.000000 }, "bbox": [ -0.1079, 51.42929, -0.1079, 51.42929 ], "geometry": { "type": "Point", "coordinates": [ -0.1079, 51.42929 ] } },
{ "type": "Feature", "id": "E05000433", "properties": { "name": "Thornton Ward", "NUMBER": 367.000000, "NUMBER0": 971.000000, "POLYGON_ID": 117357.000000, "UNIT_ID":11019, "HECTARES": 107.759000, "AREA": 0.000000 }, "bbox": [ -0.13674, 51.44703, -0.13674, 51.44703 ], "geometry": { "type": "Point", "coordinates": [ -0.13674, 51.44703 ] } },
{ "type": "Feature", "id": "E05000430", "properties": { "name": "Streatham Hill Ward", "NUMBER": 368.000000, "NUMBER0": 972.000000, "POLYGON_ID": 117358.000000, "UNIT_ID":11140, "HECTARES": 127.063000, "AREA": 0.000000 }, "bbox": [ -0.1222, 51.44076, -0.1222, 51.44076 ], "geometry": { "type": "Point", "coordinates": [ -0.1222, 51.44076 ] } },
{ "type": "Feature", "id": "E05000418", "properties": { "name": "Clapham Common Ward", "NUMBER": 377.000000, "NUMBER0": 973.000000, "POLYGON_ID": 51276.000000, "UNIT_ID":11018, "HECTARES": 133.854000, "AREA": 0.000000 }, "bbox": [ -0.13968, 51.45629, -0.13968, 51.45629 ], "geometry": { "type": "Point", "coordinates": [ -0.13968, 51.45629 ] } },
{ "type": "Feature", "id": "E05000417", "properties": { "name": "Brixton Hill Ward", "NUMBER": 378.000000, "NUMBER0": 974.000000, "POLYGON_ID": 117363.000000, "UNIT_ID":11141, "HECTARES": 113.124000, "AREA": 0.000000 }, "bbox": [ -0.12389, 51.45284, -0.12389, 51.45284 ], "geometry": { "type": "Point", "coordinates": [ -0.12389, 51.45284 ] } },
{ "type": "Feature", "id": "E05000435", "properties": { "name": "Tulse Hill Ward", "NUMBER": 379.000000, "NUMBER0": 975.000000, "POLYGON_ID": 117359.000000, "UNIT_ID":11056, "HECTARES": 103.195000, "AREA": 0.000000 }, "bbox": [ -0.11529, 51.44961, -0.11529, 51.44961 ], "geometry": { "type": "Point", "coordinates": [ -0.11529, 51.44961 ] } },
{ "type": "Feature", "id": "E05000420", "properties": { "name": "Coldharbour Ward", "NUMBER": 380.000000, "NUMBER0": 976.000000, "POLYGON_ID": 117364.000000, "UNIT_ID":41889, "HECTARES": 120.806000, "AREA": 0.000000 }, "bbox": [ -0.10851, 51.46372, -0.10851, 51.46372 ], "geometry": { "type": "Point", "coordinates": [ -0.10851, 51.46372 ] } },
{ "type": "Feature", "id": "E05000421", "properties": { "name": "Ferndale Ward", "NUMBER": 382.000000, "NUMBER0": 977.000000, "POLYGON_ID": 50790.000000, "UNIT_ID":11142, "HECTARES": 85.073000, "AREA": 0.000000 }, "bbox": [ -0.12163, 51.46384, -0.12163, 51.46384 ], "geometry": { "type": "Point", "coordinates": [ -0.12163, 51.46384 ] } },
{ "type": "Feature", "id": "E05000425", "properties": { "name": "Larkhall Ward", "NUMBER": 383.000000, "NUMBER0": 978.000000, "POLYGON_ID": 50793.000000, "UNIT_ID":11145, "HECTARES": 106.124000, "AREA": 0.000000 }, "bbox": [ -0.12883, 51.4688, -0.12883, 51.4688 ], "geometry": { "type": "Point", "coordinates": [ -0.12883, 51.4688 ] } },
{ "type": "Feature", "id": "E05000426", "properties": { "name": "Oval Ward", "NUMBER": 384.000000, "NUMBER0": 979.000000, "POLYGON_ID": 117366.000000, "UNIT_ID":10859, "HECTARES": 127.764000, "AREA": 3.586000 }, "bbox": [ -0.11821, 51.48261, -0.11821, 51.48261 ], "geometry": { "type": "Point", "coordinates": [ -0.11821, 51.48261 ] } },
{ "type": "Feature", "id": "E05000436", "properties": { "name": "Vassall Ward", "NUMBER": 385.000000, "NUMBER0": 980.000000, "POLYGON_ID": 51224.000000, "UNIT_ID":11054, "HECTARES": 112.973000, "AREA": 0.000000 }, "bbox": [ -0.10914, 51.47486, -0.10914, 51.47486 ], "geometry": { "type": "Point", "coordinates": [ -0.10914, 51.47486 ] } },
{ "type": "Feature", "id": "E05000422", "properties": { "name": "Gipsy Hill Ward", "NUMBER": 396.000000, "NUMBER0": 981.000000, "POLYGON_ID": 51228.000000, "UNIT_ID":11058, "HECTARES": 157.067000, "AREA": 0.000000 }, "bbox": [ -0.092, 51.42742, -0.092, 51.42742 ], "geometry": { "type": "Point", "coordinates": [ -0.092, 51.42742 ] } },
{ "type": "Feature", "id": "E05000434", "properties": { "name": "Thurlow Park Ward", "NUMBER": 398.000000, "NUMBER0": 982.000000, "POLYGON_ID": 117362.000000, "UNIT_ID":11016, "HECTARES": 151.482000, "AREA": 0.000000 }, "bbox": [ -0.10069, 51.44121, -0.10069, 51.44121 ], "geometry": { "type": "Point", "coordinates": [ -0.10069, 51.44121 ] } },
{ "type": "Feature", "id": "E05000423", "properties": { "name": "Herne Hill Ward", "NUMBER": 404.000000, "NUMBER0": 983.000000, "POLYGON_ID": 117360.000000, "UNIT_ID":11017, "HECTARES": 203.038000, "AREA": 0.000000 }, "bbox": [ -0.10131, 51.45893, -0.10131, 51.45893 ], "geometry": { "type": "Point", "coordinates": [ -0.10131, 51.45893 ] } },
{ "type": "Feature", "id": "E05000416", "properties": { "name": "Bishop's Ward", "NUMBER": 496.000000, "NUMBER0": 984.000000, "POLYGON_ID": 51177.000000, "UNIT_ID":11095, "HECTARES": 153.959000, "AREA": 30.258000 }, "bbox": [ -0.11473, 51.50152, -0.11473, 51.50152 ], "geometry": { "type": "Point", "coordinates": [ -0.11473, 51.50152 ] } },
{ "type": "Feature", "id": "E05000419", "properties": { "name": "Clapham Town Ward", "NUMBER": 661.000000, "NUMBER0": 985.000000, "POLYGON_ID": 50816.000000, "UNIT_ID":10860, "HECTARES": 111.893000, "AREA": 0.000000 }, "bbox": [ -0.14168, 51.46522, -0.14168, 51.46522 ], "geometry": { "type": "Point", "coordinates": [ -0.14168, 51.46522 ] } },
{ "type": "Feature", "id": "E05000429", "properties": { "name": "Stockwell Ward", "NUMBER": 662.000000, "NUMBER0": 986.000000, "POLYGON_ID": 117365.000000, "UNIT_ID":11143, "HECTARES": 86.678000, "AREA": 0.000000 }, "bbox": [ -0.1244, 51.47494, -0.1244, 51.47494 ], "geometry": { "type": "Point", "coordinates": [ -0.1244, 51.47494 ] } },
{ "type": "Feature", "id": "E05000427", "properties": { "name": "Prince's Ward", "NUMBER": 678.000000, "NUMBER0": 987.000000, "POLYGON_ID": 51181.000000, "UNIT_ID":11099, "HECTARES": 116.363000, "AREA": 10.083000 }, "bbox": [ -0.11486, 51.49018, -0.11486, 51.49018 ], "geometry": { "type": "Point", "coordinates": [ -0.11486, 51.49018 ] } },
{ "type": "Feature", "id": "E05000538", "properties": { "name": "College Ward", "NUMBER": 143.000000, "NUMBER0": 991.000000, "POLYGON_ID": 51229.000000, "UNIT_ID":11059, "HECTARES": 323.324000, "AREA": 0.000000 }, "bbox": [ -0.07712, 51.43599, -0.07712, 51.43599 ], "geometry": { "type": "Point", "coordinates": [ -0.07712, 51.43599 ] } },
{ "type": "Feature", "id": "E05000548", "properties": { "name": "Riverside Ward", "NUMBER": 239.000000, "NUMBER0": 992.000000, "POLYGON_ID": 51236.000000, "UNIT_ID":10978, "HECTARES": 132.822000, "AREA": 28.574000 }, "bbox": [ -0.07109, 51.50072, -0.07109, 51.50072 ], "geometry": { "type": "Point", "coordinates": [ -0.07109, 51.50072 ] } },
{ "type": "Feature", "id": "E05000554", "properties": { "name": "Village Ward", "NUMBER": 403.000000, "NUMBER0": 993.000000, "POLYGON_ID": 117345.000000, "UNIT_ID":11012, "HECTARES": 278.745000, "AREA": 0.000000 }, "bbox": [ -0.08675, 51.44978, -0.08675, 51.44978 ], "geometry": { "type": "Point", "coordinates": [ -0.08675, 51.44978 ] } },
{ "type": "Feature", "id": "E05000551", "properties": { "name": "South Camberwell Ward", "NUMBER": 405.000000, "NUMBER0": 994.000000, "POLYGON_ID": 117350.000000, "UNIT_ID":11015, "HECTARES": 133.149000, "AREA": 0.000000 }, "bbox": [ -0.08353, 51.46318, -0.08353, 51.46318 ], "geometry": { "type": "Point", "coordinates": [ -0.08353, 51.46318 ] } },
{ "type": "Feature", "id": "E05000539", "properties": { "name": "East Dulwich Ward", "NUMBER": 406.000000, "NUMBER0": 995.000000, "POLYGON_ID": 51269.000000, "UNIT_ID":11011, "HECTARES": 102.069000, "AREA": 0.000000 }, "bbox": [ -0.07304, 51.45484, -0.07304, 51.45484 ], "geometry": { "type": "Point", "coordinates": [ -0.07304, 51.45484 ] } },
{ "type": "Feature", "id": "E05000547", "properties": { "name": "Peckham Rye Ward", "NUMBER": 407.000000, "NUMBER0": 996.000000, "POLYGON_ID": 117346.000000, "UNIT_ID":11083, "HECTARES": 225.242000, "AREA": 0.000000 }, "bbox": [ -0.05754, 51.4558, -0.05754, 51.4558 ], "geometry": { "type": "Point", "coordinates": [ -0.05754, 51.4558 ] } },
{ "type": "Feature", "id": "E05000535", "properties": { "name": "Camberwell Green Ward", "NUMBER": 408.000000, "NUMBER0": 997.000000, "POLYGON_ID": 117353.000000, "UNIT_ID":11053, "HECTARES": 97.461000, "AREA": 0.000000 }, "bbox": [ -0.09563, 51.47709, -0.09563, 51.47709 ], "geometry": { "type": "Point", "coordinates": [ -0.09563, 51.47709 ] } },
{ "type": "Feature", "id": "E05000534", "properties": { "name": "Brunswick Park Ward", "NUMBER": 409.000000, "NUMBER0": 998.000000, "POLYGON_ID": 51222.000000, "UNIT_ID":11052, "HECTARES": 93.441000, "AREA": 0.000000 }, "bbox": [ -0.08513, 51.47374, -0.08513, 51.47374 ], "geometry": { "type": "Point", "coordinates": [ -0.08513, 51.47374 ] } },
{ "type": "Feature", "id": "E05000553", "properties": { "name": "The Lane Ward", "NUMBER": 410.000000, "NUMBER0": 999.000000, "POLYGON_ID": 117351.000000, "UNIT_ID":11051, "HECTARES": 138.888000, "AREA": 0.000000 }, "bbox": [ -0.06892, 51.4683, -0.06892, 51.4683 ], "geometry": { "type": "Point", "coordinates": [ -0.06892, 51.4683 ] } },
{ "type": "Feature", "id": "E05000545", "properties": { "name": "Nunhead Ward", "NUMBER": 411.000000, "NUMBER0": 1000.000000, "POLYGON_ID": 117352.000000, "UNIT_ID":11073, "HECTARES": 132.840000, "AREA": 0.000000 }, "bbox": [ -0.05432, 51.46802, -0.05432, 51.46802 ], "geometry": { "type": "Point", "coordinates": [ -0.05432, 51.46802 ] } },
{ "type": "Feature", "id": "E05000546", "properties": { "name": "Peckham Ward", "NUMBER": 412.000000, "NUMBER0": 1001.000000, "POLYGON_ID": 51170.000000, "UNIT_ID":11088, "HECTARES": 86.966000, "AREA": 0.000000 }, "bbox": [ -0.07319, 51.47772, -0.07319, 51.47772 ], "geometry": { "type": "Point", "coordinates": [ -0.07319, 51.47772 ] } },
{ "type": "Feature", "id": "E05000544", "properties": { "name": "Newington Ward", "NUMBER": 494.000000, "NUMBER0": 1002.000000, "POLYGON_ID": 51180.000000, "UNIT_ID":11098, "HECTARES": 83.358000, "AREA": 0.000000 }, "bbox": [ -0.10133, 51.48637, -0.10133, 51.48637 ], "geometry": { "type": "Point", "coordinates": [ -0.10133, 51.48637 ] } },
{ "type": "Feature", "id": "E05000541", "properties": { "name": "Faraday Ward", "NUMBER": 545.000000, "NUMBER0": 1003.000000, "POLYGON_ID": 51169.000000, "UNIT_ID":11087, "HECTARES": 87.815000, "AREA": 0.000000 }, "bbox": [ -0.08835, 51.4847, -0.08835, 51.4847 ], "geometry": { "type": "Point", "coordinates": [ -0.08835, 51.4847 ] } },
{ "type": "Feature", "id": "E05000540", "properties": { "name": "East Walworth Ward", "NUMBER": 546.000000, "NUMBER0": 1004.000000, "POLYGON_ID": 117348.000000, "UNIT_ID":11086, "HECTARES": 114.662000, "AREA": 0.000000 }, "bbox": [ -0.0847, 51.48897, -0.0847, 51.48897 ], "geometry": { "type": "Point", "coordinates": [ -0.0847, 51.48897 ] } },
{ "type": "Feature", "id": "E05000543", "properties": { "name": "Livesey Ward", "NUMBER": 547.000000, "NUMBER0": 1005.000000, "POLYGON_ID": 117347.000000, "UNIT_ID":11074, "HECTARES": 143.832000, "AREA": 0.000000 }, "bbox": [ -0.06072, 51.4824, -0.06072, 51.4824 ], "geometry": { "type": "Point", "coordinates": [ -0.06072, 51.4824 ] } },
{ "type": "Feature", "id": "E05000550", "properties": { "name": "South Bermondsey Ward", "NUMBER": 548.000000, "NUMBER0": 1006.000000, "POLYGON_ID": 51172.000000, "UNIT_ID":11090, "HECTARES": 97.363000, "AREA": 0.000000 }, "bbox": [ -0.06705, 51.48954, -0.06705, 51.48954 ], "geometry": { "type": "Point", "coordinates": [ -0.06705, 51.48954 ] } },
{ "type": "Feature", "id": "E05000536", "properties": { "name": "Cathedrals Ward", "NUMBER": 549.000000, "NUMBER0": 1007.000000, "POLYGON_ID": 117349.000000, "UNIT_ID":11097, "HECTARES": 176.822000, "AREA": 18.584000 }, "bbox": [ -0.10082, 51.50245, -0.10082, 51.50245 ], "geometry": { "type": "Point", "coordinates": [ -0.10082, 51.50245 ] } },
{ "type": "Feature", "id": "E05000542", "properties": { "name": "Grange Ward", "NUMBER": 550.000000, "NUMBER0": 1008.000000, "POLYGON_ID": 117354.000000, "UNIT_ID":11089, "HECTARES": 121.453000, "AREA": 0.000000 }, "bbox": [ -0.07882, 51.49686, -0.07882, 51.49686 ], "geometry": { "type": "Point", "coordinates": [ -0.07882, 51.49686 ] } },
{ "type": "Feature", "id": "E05000549", "properties": { "name": "Rotherhithe Ward", "NUMBER": 551.000000, "NUMBER0": 1009.000000, "POLYGON_ID": 117355.000000, "UNIT_ID":41888, "HECTARES": 149.050000, "AREA": 12.968000 }, "bbox": [ -0.05166, 51.49739, -0.05166, 51.49739 ], "geometry": { "type": "Point", "coordinates": [ -0.05166, 51.49739 ] } },
{ "type": "Feature", "id": "E05000552", "properties": { "name": "Surrey Docks Ward", "NUMBER": 554.000000, "NUMBER0": 1010.000000, "POLYGON_ID": 50733.000000, "UNIT_ID":11172, "HECTARES": 190.062000, "AREA": 45.013000 }, "bbox": [ -0.0383, 51.50027, -0.0383, 51.50027 ], "geometry": { "type": "Point", "coordinates": [ -0.0383, 51.50027 ] } },
{ "type": "Feature", "id": "E05000537", "properties": { "name": "Chaucer Ward", "NUMBER": 696.000000, "NUMBER0": 1011.000000, "POLYGON_ID": 50814.000000, "UNIT_ID":10858, "HECTARES": 81.977000, "AREA": 0.000000 }, "bbox": [ -0.09079, 51.49795, -0.09079, 51.49795 ], "geometry": { "type": "Point", "coordinates": [ -0.09079, 51.49795 ] } },
{ "type": "Feature", "id": "E05000437", "properties": { "name": "Bellingham Ward", "NUMBER": 147.000000, "NUMBER0": 1014.000000, "POLYGON_ID": 117089.000000, "UNIT_ID":11009, "HECTARES": 308.471000, "AREA": 0.000000 }, "bbox": [ -0.02505, 51.4278, -0.02505, 51.4278 ], "geometry": { "type": "Point", "coordinates": [ -0.02505, 51.4278 ] } },
{ "type": "Feature", "id": "E05000453", "properties": { "name": "Telegraph Hill Ward", "NUMBER": 148.000000, "NUMBER0": 1015.000000, "POLYGON_ID": 117094.000000, "UNIT_ID":11072, "HECTARES": 154.631000, "AREA": 0.000000 }, "bbox": [ -0.04441, 51.4675, -0.04441, 51.4675 ], "geometry": { "type": "Point", "coordinates": [ -0.04441, 51.4675 ] } },
{ "type": "Feature", "id": "E05000442", "properties": { "name": "Downham Ward", "NUMBER": 150.000000, "NUMBER0": 1016.000000, "POLYGON_ID": 117085.000000, "UNIT_ID":11007, "HECTARES": 238.178000, "AREA": 0.000000 }, "bbox": [ 0.00165, 51.42436, 0.00165, 51.42436 ], "geometry": { "type": "Point", "coordinates": [ 0.00165, 51.42436 ] } },
{ "type": "Feature", "id": "E05000454", "properties": { "name": "Whitefoot Ward", "NUMBER": 154.000000, "NUMBER0": 1017.000000, "POLYGON_ID": 117086.000000, "UNIT_ID":11069, "HECTARES": 223.004000, "AREA": 0.000000 }, "bbox": [ 0.00023, 51.43325, 0.00023, 51.43325 ], "geometry": { "type": "Point", "coordinates": [ 0.00023, 51.43325 ] } },
{ "type": "Feature", "id": "E05000438", "properties": { "name": "Blackheath Ward", "NUMBER": 156.000000, "NUMBER0": 1018.000000, "POLYGON_ID": 117096.000000, "UNIT_ID":11046, "HECTARES": 231.823000, "AREA": 0.000000 }, "bbox": [ 0.00102, 51.46667, 0.00102, 51.46667 ], "geometry": { "type": "Point", "coordinates": [ 0.00102, 51.46667 ] } },
{ "type": "Feature", "id": "E05000452", "properties": { "name": "Sydenham Ward", "NUMBER": 397.000000, "NUMBER0": 1019.000000, "POLYGON_ID": 117087.000000, "UNIT_ID":11084, "HECTARES": 174.372000, "AREA": 0.000000 }, "bbox": [ -0.05676, 51.42747, -0.05676, 51.42747 ], "geometry": { "type": "Point", "coordinates": [ -0.05676, 51.42747 ] } },
{ "type": "Feature", "id": "E05000444", "properties": { "name": "Forest Hill Ward", "NUMBER": 399.000000, "NUMBER0": 1020.000000, "POLYGON_ID": 51164.000000, "UNIT_ID":11082, "HECTARES": 182.785000, "AREA": 0.000000 }, "bbox": [ -0.05812, 51.44054, -0.05812, 51.44054 ], "geometry": { "type": "Point", "coordinates": [ -0.05812, 51.44054 ] } },
{ "type": "Feature", "id": "E05000450", "properties": { "name": "Perry Vale Ward", "NUMBER": 400.000000, "NUMBER0": 1021.000000, "POLYGON_ID": 117088.000000, "UNIT_ID":11079, "HECTARES": 168.450000, "AREA": 0.000000 }, "bbox": [ -0.04442, 51.43639, -0.04442, 51.43639 ], "geometry": { "type": "Point", "coordinates": [ -0.04442, 51.43639 ] } },
{ "type": "Feature", "id": "E05000451", "properties": { "name": "Rushey Green Ward", "NUMBER": 401.000000, "NUMBER0": 1022.000000, "POLYGON_ID": 117090.000000, "UNIT_ID":11070, "HECTARES": 178.524000, "AREA": 0.000000 }, "bbox": [ -0.02062, 51.44594, -0.02062, 51.44594 ], "geometry": { "type": "Point", "coordinates": [ -0.02062, 51.44594 ] } },
{ "type": "Feature", "id": "E05000440", "properties": { "name": "Catford South Ward", "NUMBER": 402.000000, "NUMBER0": 1023.000000, "POLYGON_ID": 117091.000000, "UNIT_ID":11036, "HECTARES": 186.655000, "AREA": 0.000000 }, "bbox": [ -0.00866, 51.43934, -0.00866, 51.43934 ], "geometry": { "type": "Point", "coordinates": [ -0.00866, 51.43934 ] } },
{ "type": "Feature", "id": "E05000441", "properties": { "name": "Crofton Park Ward", "NUMBER": 413.000000, "NUMBER0": 1024.000000, "POLYGON_ID": 117100.000000, "UNIT_ID":11078, "HECTARES": 171.962000, "AREA": 0.000000 }, "bbox": [ -0.03874, 51.44923, -0.03874, 51.44923 ], "geometry": { "type": "Point", "coordinates": [ -0.03874, 51.44923 ] } },
{ "type": "Feature", "id": "E05000446", "properties": { "name": "Ladywell Ward", "NUMBER": 414.000000, "NUMBER0": 1025.000000, "POLYGON_ID": 117092.000000, "UNIT_ID":11038, "HECTARES": 160.598000, "AREA": 0.000000 }, "bbox": [ -0.02553, 51.459, -0.02553, 51.459 ], "geometry": { "type": "Point", "coordinates": [ -0.02553, 51.459 ] } },
{ "type": "Feature", "id": "E05000448", "properties": { "name": "Lewisham Central Ward", "NUMBER": 415.000000, "NUMBER0": 1026.000000, "POLYGON_ID": 117093.000000, "UNIT_ID":11037, "HECTARES": 206.203000, "AREA": 0.000000 }, "bbox": [ -0.00959, 51.45599, -0.00959, 51.45599 ], "geometry": { "type": "Point", "coordinates": [ -0.00959, 51.45599 ] } },
{ "type": "Feature", "id": "E05000439", "properties": { "name": "Brockley Ward", "NUMBER": 416.000000, "NUMBER0": 1027.000000, "POLYGON_ID": 117095.000000, "UNIT_ID":41855, "HECTARES": 168.183000, "AREA": 0.000000 }, "bbox": [ -0.0302, 51.46923, -0.0302, 51.46923 ], "geometry": { "type": "Point", "coordinates": [ -0.0302, 51.46923 ] } },
{ "type": "Feature", "id": "E05000449", "properties": { "name": "New Cross Ward", "NUMBER": 417.000000, "NUMBER0": 1028.000000, "POLYGON_ID": 117097.000000, "UNIT_ID":11049, "HECTARES": 181.114000, "AREA": 1.407000 }, "bbox": [ -0.03999, 51.47966, -0.03999, 51.47966 ], "geometry": { "type": "Point", "coordinates": [ -0.03999, 51.47966 ] } },
{ "type": "Feature", "id": "E05000445", "properties": { "name": "Grove Park Ward", "NUMBER": 419.000000, "NUMBER0": 1029.000000, "POLYGON_ID": 117098.000000, "UNIT_ID":10903, "HECTARES": 239.291000, "AREA": 0.000000 }, "bbox": [ 0.02327, 51.43591, 0.02327, 51.43591 ], "geometry": { "type": "Point", "coordinates": [ 0.02327, 51.43591 ] } },
{ "type": "Feature", "id": "E05000447", "properties": { "name": "Lee Green Ward", "NUMBER": 420.000000, "NUMBER0": 1030.000000, "POLYGON_ID": 117099.000000, "UNIT_ID":11040, "HECTARES": 179.842000, "AREA": 0.000000 }, "bbox": [ 0.0071, 51.4525, 0.0071, 51.4525 ], "geometry": { "type": "Point", "coordinates": [ 0.0071, 51.4525 ] } },
{ "type": "Feature", "id": "E05000443", "properties": { "name": "Evelyn Ward", "NUMBER": 553.000000, "NUMBER0": 1031.000000, "POLYGON_ID": 117101.000000, "UNIT_ID":11071, "HECTARES": 177.620000, "AREA": 15.388000 }, "bbox": [ -0.03502, 51.48641, -0.03502, 51.48641 ], "geometry": { "type": "Point", "coordinates": [ -0.03502, 51.48641 ] } },
{ "type": "Feature", "id": "E05000224", "properties": { "name": "Middle Park and Sutcliffe Ward", "NUMBER": 155.000000, "NUMBER0": 1035.000000, "POLYGON_ID": 117371.000000, "UNIT_ID":10905, "HECTARES": 329.143000, "AREA": 0.000000 }, "bbox": [ 0.02812, 51.45152, 0.02812, 51.45152 ], "geometry": { "type": "Point", "coordinates": [ 0.02812, 51.45152 ] } },
{ "type": "Feature", "id": "E05000217", "properties": { "name": "Coldharbour and New Eltham Ward", "NUMBER": 157.000000, "NUMBER0": 1036.000000, "POLYGON_ID": 117370.000000, "UNIT_ID":10778, "HECTARES": 254.935000, "AREA": 0.000000 }, "bbox": [ 0.05964, 51.4336, 0.05964, 51.4336 ], "geometry": { "type": "Point", "coordinates": [ 0.05964, 51.4336 ] } },
{ "type": "Feature", "id": "E05000219", "properties": { "name": "Eltham South Ward", "NUMBER": 158.000000, "NUMBER0": 1037.000000, "POLYGON_ID": 117367.000000, "UNIT_ID":10834, "HECTARES": 462.641000, "AREA": 0.000000 }, "bbox": [ 0.06898, 51.44678, 0.06898, 51.44678 ], "geometry": { "type": "Point", "coordinates": [ 0.06898, 51.44678 ] } },
{ "type": "Feature", "id": "E05000227", "properties": { "name": "Shooters Hill Ward", "NUMBER": 160.000000, "NUMBER0": 1038.000000, "POLYGON_ID": 117368.000000, "UNIT_ID":41894, "HECTARES": 377.072000, "AREA": 0.000000 }, "bbox": [ 0.07514, 51.47142, 0.07514, 51.47142 ], "geometry": { "type": "Point", "coordinates": [ 0.07514, 51.47142 ] } },
{ "type": "Feature", "id": "E05000225", "properties": { "name": "Peninsula Ward", "NUMBER": 242.000000, "NUMBER0": 1039.000000, "POLYGON_ID": 117376.000000, "UNIT_ID":10910, "HECTARES": 449.194000, "AREA": 107.254000 }, "bbox": [ 0.01061, 51.49302, 0.01061, 51.49302 ], "geometry": { "type": "Point", "coordinates": [ 0.01061, 51.49302 ] } },
{ "type": "Feature", "id": "E05000230", "properties": { "name": "Woolwich Riverside Ward", "NUMBER": 243.000000, "NUMBER0": 1040.000000, "POLYGON_ID": 117378.000000, "UNIT_ID":41895, "HECTARES": 326.109000, "AREA": 72.317000 }, "bbox": [ 0.05242, 51.49235, 0.05242, 51.49235 ], "geometry": { "type": "Point", "coordinates": [ 0.05242, 51.49235 ] } },
{ "type": "Feature", "id": "E05000222", "properties": { "name": "Greenwich West Ward", "NUMBER": 418.000000, "NUMBER0": 1041.000000, "POLYGON_ID": 117369.000000, "UNIT_ID":41890, "HECTARES": 279.234000, "AREA": 26.431000 }, "bbox": [ -0.00882, 51.47791, -0.00882, 51.47791 ], "geometry": { "type": "Point", "coordinates": [ -0.00882, 51.47791 ] } },
{ "type": "Feature", "id": "E05000220", "properties": { "name": "Eltham West Ward", "NUMBER": 421.000000, "NUMBER0": 1042.000000, "POLYGON_ID": 117382.000000, "UNIT_ID":41893, "HECTARES": 242.564000, "AREA": 0.000000 }, "bbox": [ 0.03672, 51.45894, 0.03672, 51.45894 ], "geometry": { "type": "Point", "coordinates": [ 0.03672, 51.45894 ] } },
{ "type": "Feature", "id": "E05000215", "properties": { "name": "Blackheath Westcombe Ward", "NUMBER": 422.000000, "NUMBER0": 1043.000000, "POLYGON_ID": 117373.000000, "UNIT_ID":11042, "HECTARES": 213.815000, "AREA": 0.000000 }, "bbox": [ 0.01669, 51.47471, 0.01669, 51.47471 ], "geometry": { "type": "Point", "coordinates": [ 0.01669, 51.47471 ] } },
{ "type": "Feature", "id": "E05000223", "properties": { "name": "Kidbrooke with Hornfair Ward", "NUMBER": 423.000000, "NUMBER0": 1044.000000, "POLYGON_ID": 117374.000000, "UNIT_ID":10917, "HECTARES": 237.454000, "AREA": 0.000000 }, "bbox": [ 0.03918, 51.47105, 0.03918, 51.47105 ], "geometry": { "type": "Point", "coordinates": [ 0.03918, 51.47105 ] } },
{ "type": "Feature", "id": "E05000218", "properties": { "name": "Eltham North Ward", "NUMBER": 424.000000, "NUMBER0": 1045.000000, "POLYGON_ID": 117372.000000, "UNIT_ID":41891, "HECTARES": 255.512000, "AREA": 0.000000 }, "bbox": [ 0.06113, 51.45876, 0.06113, 51.45876 ], "geometry": { "type": "Point", "coordinates": [ 0.06113, 51.45876 ] } },
{ "type": "Feature", "id": "E05000216", "properties": { "name": "Charlton Ward", "NUMBER": 574.000000, "NUMBER0": 1046.000000, "POLYGON_ID": 117377.000000, "UNIT_ID":10909, "HECTARES": 203.120000, "AREA": 0.000000 }, "bbox": [ 0.03548, 51.48206, 0.03548, 51.48206 ], "geometry": { "type": "Point", "coordinates": [ 0.03548, 51.48206 ] } },
{ "type": "Feature", "id": "E05000229", "properties": { "name": "Woolwich Common Ward", "NUMBER": 575.000000, "NUMBER0": 1047.000000, "POLYGON_ID": 117375.000000, "UNIT_ID":41892, "HECTARES": 262.035000, "AREA": 0.000000 }, "bbox": [ 0.06106, 51.48088, 0.06106, 51.48088 ], "geometry": { "type": "Point", "coordinates": [ 0.06106, 51.48088 ] } },
{ "type": "Feature", "id": "E05000226", "properties": { "name": "Plumstead Ward", "NUMBER": 576.000000, "NUMBER0": 1048.000000, "POLYGON_ID": 117380.000000, "UNIT_ID":10831, "HECTARES": 234.189000, "AREA": 0.000000 }, "bbox": [ 0.09879, 51.48366, 0.09879, 51.48366 ], "geometry": { "type": "Point", "coordinates": [ 0.09879, 51.48366 ] } },
{ "type": "Feature", "id": "E05000221", "properties": { "name": "Glyndon Ward", "NUMBER": 577.000000, "NUMBER0": 1049.000000, "POLYGON_ID": 117379.000000, "UNIT_ID":10827, "HECTARES": 170.196000, "AREA": 15.420000 }, "bbox": [ 0.08098, 51.48851, 0.08098, 51.48851 ], "geometry": { "type": "Point", "coordinates": [ 0.08098, 51.48851 ] } },
{ "type": "Feature", "id": "E05000228", "properties": { "name": "Thamesmead Moorings Ward", "NUMBER": 578.000000, "NUMBER0": 1050.000000, "POLYGON_ID": 50872.000000, "UNIT_ID":10828, "HECTARES": 481.256000, "AREA": 89.362000 }, "bbox": [ 0.10048, 51.50294, 0.10048, 51.50294 ], "geometry": { "type": "Point", "coordinates": [ 0.10048, 51.50294 ] } },
{ "type": "Feature", "id": "E05000214", "properties": { "name": "Abbey Wood Ward", "NUMBER": 634.000000, "NUMBER0": 1051.000000, "POLYGON_ID": 117381.000000, "UNIT_ID":10832, "HECTARES": 265.721000, "AREA": 0.000000 }, "bbox": [ 0.11362, 51.48824, 0.11362, 51.48824 ], "geometry": { "type": "Point", "coordinates": [ 0.11362, 51.48824 ] } },
{ "type": "Feature", "id": "E05000078", "properties": { "name": "Longlands Ward", "NUMBER": 153.000000, "NUMBER0": 1054.000000, "POLYGON_ID": 117119.000000, "UNIT_ID":10774, "HECTARES": 259.723000, "AREA": 0.000000 }, "bbox": [ 0.09392, 51.42719, 0.09392, 51.42719 ], "geometry": { "type": "Point", "coordinates": [ 0.09392, 51.42719 ] } },
{ "type": "Feature", "id": "E05000066", "properties": { "name": "Blackfen and Lamorbey Ward", "NUMBER": 159.000000, "NUMBER0": 1055.000000, "POLYGON_ID": 117121.000000, "UNIT_ID":10835, "HECTARES": 168.558000, "AREA": 0.000000 }, "bbox": [ 0.09172, 51.4455, 0.09172, 51.4455 ], "geometry": { "type": "Point", "coordinates": [ 0.09172, 51.4455 ] } },
{ "type": "Feature", "id": "E05000072", "properties": { "name": "Cray Meadows Ward", "NUMBER": 164.000000, "NUMBER0": 1056.000000, "POLYGON_ID": 117118.000000, "UNIT_ID":10760, "HECTARES": 719.031000, "AREA": 0.000000 }, "bbox": [ 0.13351, 51.42352, 0.13351, 51.42352 ], "geometry": { "type": "Point", "coordinates": [ 0.13351, 51.42352 ] } },
{ "type": "Feature", "id": "E05000083", "properties": { "name": "Sidcup Ward", "NUMBER": 165.000000, "NUMBER0": 1057.000000, "POLYGON_ID": 117120.000000, "UNIT_ID":10837, "HECTARES": 270.347000, "AREA": 0.000000 }, "bbox": [ 0.10571, 51.43401, 0.10571, 51.43401 ], "geometry": { "type": "Point", "coordinates": [ 0.10571, 51.43401 ] } },
{ "type": "Feature", "id": "E05000081", "properties": { "name": "St. Mary's Ward", "NUMBER": 166.000000, "NUMBER0": 1058.000000, "POLYGON_ID": 50888.000000, "UNIT_ID":10756, "HECTARES": 442.853000, "AREA": 0.000000 }, "bbox": [ 0.14641, 51.4396, 0.14641, 51.4396 ], "geometry": { "type": "Point", "coordinates": [ 0.14641, 51.4396 ] } },