{
"type": "FeatureCollection",
"crs": { "type": "name", "properties": { "name": "urn:ogc:def:crs:OGC:1.3:CRS84" } },
                                                                                
"features": [
{ "type": "Feature", "properties": { "nlc_id": 5131, "tlc_id": "ABW", "name": "Abbey Wood" }, "geometry": { "type": "Point", "coordinates": [ 0.12142, 51.49101 ] } },
{ "type": "Feature", "properties": { "nlc_id": 3813, "tlc_id": "ABE", "name": "Aber" }, "geometry": { "type": "Point", "coordinates": [ -3.22987, 51.57492 ] } },
{ "type": "Feature", "properties": { "nlc_id": 3801, "tlc_id": "ACY", "name": "Abercynon" }, "geometry": { "type": "Point", "coordinates": [ -3.32703, 51.64466 ] } },
{ "type": "Feature", "properties": { "nlc_id": 3982, "tlc_id": "ABA", "name": "Aberdare" }, "geometry": { "type": "Point", "coordinates": [ -3.44313, 51.71501 ] } },
{ "type": "Feature", "properties": { "nlc_id": 8976, "tlc_id": "ABD", "name": "Aberdeen" }, "geometry": { "type": "Point", "coordinates": [ -2.09867, 57.14377 ] } },
{ "type": "Feature", "properties": { "nlc_id": 9090, "tlc_id": "AUR", "name": "Aberdour" }, "geometry": { "type": "Point", "coordinates": [ -3.30058, 56.05464 ] } },
{ "type": "Feature", "properties": { "nlc_id": 4435, "tlc_id": "AVY", "name": "Aberdovey" }, "geometry": { "type": "Point", "coordinates": [ -4.05712, 52.54393 ] } },
{ "type": "Feature", "properties": { "nlc_id": 4440, "tlc_id": "ABH", "name": "Abererch" }, "geometry": { "type": "Point", "coordinates": [ -4.37423, 52.89857 ] } },
{ "type": "Feature", "properties": { "nlc_id": 3602, "tlc_id": "AGV", "name": "Abergavenny" }, "geometry": { "type": "Point", "coordinates": [ -3.00968, 51.81665 ] } },
{ "type": "Feature", "properties": { "nlc_id": 2448, "tlc_id": "AGL", "name": "Abergele & Pensarn" }, "geometry": { "type": "Point", "coordinates": [ -3.58266, 53.29456 ] } },
{ "type": "Feature", "properties": { "nlc_id": 4303, "tlc_id": "AYW", "name": "Aberystwyth" }, "geometry": { "type": "Point", "coordinates": [ -4.08195, 52.41402 ] } },
{ "type": "Feature", "properties": { "nlc_id": 2552, "tlc_id": "ACR", "name": "Accrington" }, "geometry": { "type": "Point", "coordinates": [ -2.36956, 53.75297 ] } },
{ "type": "Feature", "properties": { "nlc_id": 8600, "tlc_id": "AAT", "name": "Achanalt" }, "geometry": { "type": "Point", "coordinates": [ -4.9139, 57.60968 ] } },
{ "type": "Feature", "properties": { "nlc_id": 8601, "tlc_id": "ACN", "name": "Achnasheen" }, "geometry": { "type": "Point", "coordinates": [ -5.07238, 57.57937 ] } },
{ "type": "Feature", "properties": { "nlc_id": 8602, "tlc_id": "ACH", "name": "Achnashellach" }, "geometry": { "type": "Point", "coordinates": [ -5.33311, 57.48215 ] } },
{ "type": "Feature", "properties": { "nlc_id": 7662, "tlc_id": "ACK", "name": "Acklington" }, "geometry": { "type": "Point", "coordinates": [ -1.65182, 55.30713 ] } },
{ "type": "Feature", "properties": { "nlc_id": 7286, "tlc_id": "ACL", "name": "Acle" }, "geometry": { "type": "Point", "coordinates": [ 1.54398, 52.63465 ] } },
{ "type": "Feature", "properties": { "nlc_id": 4529, "tlc_id": "ACG", "name": "Acocks Green" }, "geometry": { "type": "Point", "coordinates": [ -1.81898, 52.44929 ] } },
{ "type": "Feature", "properties": { "nlc_id": 2287, "tlc_id": "ACB", "name": "Acton Bridge" }, "geometry": { "type": "Point", "coordinates": [ -2.60315, 53.26649 ] } },
{ "type": "Feature", "properties": { "nlc_id": 1404, "tlc_id": "ACC", "name": "Acton Central" }, "geometry": { "type": "Point", "coordinates": [ -0.26295, 51.50866 ] } },
{ "type": "Feature", "properties": { "nlc_id": 3000, "tlc_id": "AML", "name": "Acton Main Line" }, "geometry": { "type": "Point", "coordinates": [ -0.26674, 51.51713 ] } },
{ "type": "Feature", "properties": { "nlc_id": 1036, "tlc_id": "ADD", "name": "Adderley Park" }, "geometry": { "type": "Point", "coordinates": [ -1.85595, 52.48305 ] } },
{ "type": "Feature", "properties": { "nlc_id": 9310, "tlc_id": "ADW", "name": "Addiewell" }, "geometry": { "type": "Point", "coordinates": [ -3.60655, 55.84345 ] } },
{ "type": "Feature", "properties": { "nlc_id": 5550, "tlc_id": "ASN", "name": "Addlestone" }, "geometry": { "type": "Point", "coordinates": [ -0.48444, 51.37299 ] } },
{ "type": "Feature", "properties": { "nlc_id": 5160, "tlc_id": "ADM", "name": "Adisham" }, "geometry": { "type": "Point", "coordinates": [ 1.19913, 51.24114 ] } },
{ "type": "Feature", "properties": { "nlc_id": 2939, "tlc_id": "ADC", "name": "Adlington (Cheshire)" }, "geometry": { "type": "Point", "coordinates": [ -2.13357, 53.31954 ] } },
{ "type": "Feature", "properties": { "nlc_id": 2641, "tlc_id": "ADL", "name": "Adlington (Lancashire)" }, "geometry": { "type": "Point", "coordinates": [ -2.60309, 53.61324 ] } },
{ "type": "Feature", "properties": { "nlc_id": 8353, "tlc_id": "AWK", "name": "Adwick" }, "geometry": { "type": "Point", "coordinates": [ -1.18034, 53.57231 ] } },
{ "type": "Feature", "properties": { "nlc_id": 2255, "tlc_id": "AIG", "name": "Aigburth" }, "geometry": { "type": "Point", "coordinates": [ -2.92718, 53.36455 ] } },
{ "type": "Feature", "properties": { "nlc_id": 2350, "tlc_id": "ANS", "name": "Ainsdale" }, "geometry": { "type": "Point", "coordinates": [ -3.04268, 53.60203 ] } },
{ "type": "Feature", "properties": { "nlc_id": 2125, "tlc_id": "AIN", "name": "Aintree" }, "geometry": { "type": "Point", "coordinates": [ -2.95631, 53.4739 ] } },
{ "type": "Feature", "properties": { "nlc_id": 9695, "tlc_id": "AIR", "name": "Airbles" }, "geometry": { "type": "Point", "coordinates": [ -3.99423, 55.78287 ] } },
{ "type": "Feature", "properties": { "nlc_id": 9759, "tlc_id": "ADR", "name": "Airdrie" }, "geometry": { "type": "Point", "coordinates": [ -3.98295, 55.86402 ] } },
{ "type": "Feature", "properties": { "nlc_id": 5132, "tlc_id": "AYP", "name": "Albany Park" }, "geometry": { "type": "Point", "coordinates": [ 0.12576, 51.4354 ] } },
{ "type": "Feature", "properties": { "nlc_id": 4614, "tlc_id": "ALB", "name": "Albrighton" }, "geometry": { "type": "Point", "coordinates": [ -2.26892, 52.63792 ] } },
{ "type": "Feature", "properties": { "nlc_id": 2760, "tlc_id": "ALD", "name": "Alderley Edge" }, "geometry": { "type": "Point", "coordinates": [ -2.23681, 53.30377 ] } },
{ "type": "Feature", "properties": { "nlc_id": 3145, "tlc_id": "AMT", "name": "Aldermaston" }, "geometry": { "type": "Point", "coordinates": [ -1.13742, 51.40191 ] } },
{ "type": "Feature", "properties": { "nlc_id": 5623, "tlc_id": "AHT", "name": "Aldershot" }, "geometry": { "type": "Point", "coordinates": [ -0.75985, 51.24636 ] } },
{ "type": "Feature", "properties": { "nlc_id": 5280, "tlc_id": "AGT", "name": "Aldrington" }, "geometry": { "type": "Point", "coordinates": [ -0.18381, 50.83631 ] } },
{ "type": "Feature", "properties": { "nlc_id": 6025, "tlc_id": "AAP", "name": "Alexandra Palace" }, "geometry": { "type": "Point", "coordinates": [ -0.12021, 51.59787 ] } },
{ "type": "Feature", "properties": { "nlc_id": 9905, "tlc_id": "AXP", "name": "Alexandra Parade" }, "geometry": { "type": "Point", "coordinates": [ -4.21069, 55.86321 ] } },
{ "type": "Feature", "properties": { "nlc_id": 9861, "tlc_id": "ALX", "name": "Alexandria" }, "geometry": { "type": "Point", "coordinates": [ -4.57753, 55.98513 ] } },
{ "type": "Feature", "properties": { "nlc_id": 1805, "tlc_id": "ALF", "name": "Alfreton" }, "geometry": { "type": "Point", "coordinates": [ -1.36969, 53.10041 ] } },
{ "type": "Feature", "properties": { "nlc_id": 7520, "tlc_id": "ALW", "name": "Allen's West" }, "geometry": { "type": "Point", "coordinates": [ -1.3611, 54.52463 ] } },
{ "type": "Feature", "properties": { "nlc_id": 9883, "tlc_id": "ALO", "name": "Alloa" }, "geometry": { "type": "Point", "coordinates": [ -3.79008, 56.11784 ] } },
{ "type": "Feature", "properties": { "nlc_id": 8605, "tlc_id": "ASS", "name": "Alness" }, "geometry": { "type": "Point", "coordinates": [ -4.24974, 57.69448 ] } },
{ "type": "Feature", "properties": { "nlc_id": 7787, "tlc_id": "ALM", "name": "Alnmouth" }, "geometry": { "type": "Point", "coordinates": [ -1.63662, 55.39281 ] } },
{ "type": "Feature", "properties": { "nlc_id": 6847, "tlc_id": "ALR", "name": "Alresford" }, "geometry": { "type": "Point", "coordinates": [ 0.99748, 51.85395 ] } },
{ "type": "Feature", "properties": { "nlc_id": 1223, "tlc_id": "ASG", "name": "Alsager" }, "geometry": { "type": "Point", "coordinates": [ -2.29907, 53.09299 ] } },
{ "type": "Feature", "properties": { "nlc_id": 6869, "tlc_id": "ALN", "name": "Althorne" }, "geometry": { "type": "Point", "coordinates": [ 0.75252, 51.64782 ] } },
{ "type": "Feature", "properties": { "nlc_id": 6532, "tlc_id": "ALP", "name": "Althorpe" }, "geometry": { "type": "Point", "coordinates": [ -0.73316, 53.58549 ] } },
{ "type": "Feature", "properties": { "nlc_id": 8606, "tlc_id": "ABC", "name": "Altnabreac" }, "geometry": { "type": "Point", "coordinates": [ -3.70629, 58.38824 ] } },
{ "type": "Feature", "properties": { "nlc_id": 5544, "tlc_id": "AON", "name": "Alton" }, "geometry": { "type": "Point", "coordinates": [ -0.96691, 51.15191 ] } },
{ "type": "Feature", "properties": { "nlc_id": 2806, "tlc_id": "ALT", "name": "Altrincham" }, "geometry": { "type": "Point", "coordinates": [ -2.3469, 53.38771 ] } },
{ "type": "Feature", "properties": { "nlc_id": 1198, "tlc_id": "ALV", "name": "Alvechurch" }, "geometry": { "type": "Point", "coordinates": [ -1.96767, 52.34604 ] } },
{ "type": "Feature", "properties": { "nlc_id": 1678, "tlc_id": "AMB", "name": "Ambergate" }, "geometry": { "type": "Point", "coordinates": [ -1.4807, 53.0605 ] } },
{ "type": "Feature", "properties": { "nlc_id": 5250, "tlc_id": "AMY", "name": "Amberley" }, "geometry": { "type": "Point", "coordinates": [ -0.54198, 50.89661 ] } },
{ "type": "Feature", "properties": { "nlc_id": 506, "tlc_id": "AMR", "name": "Amersham" }, "geometry": { "type": "Point", "coordinates": [ -0.60758, 51.67416 ] } },
{ "type": "Feature", "properties": { "nlc_id": 4236, "tlc_id": "AMF", "name": "Ammanford" }, "geometry": { "type": "Point", "coordinates": [ -3.99679, 51.79593 ] } },
{ "type": "Feature", "properties": { "nlc_id": 6358, "tlc_id": "ANC", "name": "Ancaster" }, "geometry": { "type": "Point", "coordinates": [ -0.5356, 52.98766 ] } },
{ "type": "Feature", "properties": { "nlc_id": 9965, "tlc_id": "AND", "name": "Anderston" }, "geometry": { "type": "Point", "coordinates": [ -4.27102, 55.85994 ] } },
{ "type": "Feature", "properties": { "nlc_id": 5510, "tlc_id": "ADV", "name": "Andover" }, "geometry": { "type": "Point", "coordinates": [ -1.49224, 51.21149 ] } },
{ "type": "Feature", "properties": { "nlc_id": 5397, "tlc_id": "ANZ", "name": "Anerley" }, "geometry": { "type": "Point", "coordinates": [ -0.06587, 51.4121 ] } },
{ "type": "Feature", "properties": { "nlc_id": 6909, "tlc_id": "AGR", "name": "Angel Road" }, "geometry": { "type": "Point", "coordinates": [ -0.04877, 51.61235 ] } },
{ "type": "Feature", "properties": { "nlc_id": 5267, "tlc_id": "ANG", "name": "Angmering" }, "geometry": { "type": "Point", "coordinates": [ -0.48939, 50.81651 ] } },
{ "type": "Feature", "properties": { "nlc_id": 9451, "tlc_id": "ANN", "name": "Annan" }, "geometry": { "type": "Point", "coordinates": [ -3.2626, 54.98386 ] } },
{ "type": "Feature", "properties": { "nlc_id": 9972, "tlc_id": "ANL", "name": "Anniesland" }, "geometry": { "type": "Point", "coordinates": [ -4.322, 55.88939 ] } },
{ "type": "Feature", "properties": { "nlc_id": 2662, "tlc_id": "AFV", "name": "Ansdell & Fairhaven" }, "geometry": { "type": "Point", "coordinates": [ -2.99306, 53.74146 ] } },
{ "type": "Feature", "properties": { "nlc_id": 8562, "tlc_id": "APY", "name": "Apperley Bridge" }, "geometry": { "type": "Point", "coordinates": [ -1.70583, 53.84175 ] } },
{ "type": "Feature", "properties": { "nlc_id": 2052, "tlc_id": "APP", "name": "Appleby" }, "geometry": { "type": "Point", "coordinates": [ -2.4867, 54.58036 ] } },
{ "type": "Feature", "properties": { "nlc_id": 5003, "tlc_id": "APD", "name": "Appledore" }, "geometry": { "type": "Point", "coordinates": [ 0.81638, 51.03317 ] } },
{ "type": "Feature", "properties": { "nlc_id": 3109, "tlc_id": "APF", "name": "Appleford" }, "geometry": { "type": "Point", "coordinates": [ -1.24214, 51.63959 ] } },
{ "type": "Feature", "properties": { "nlc_id": 2396, "tlc_id": "APB", "name": "Appley Bridge" }, "geometry": { "type": "Point", "coordinates": [ -2.71927, 53.57866 ] } },
{ "type": "Feature", "properties": { "nlc_id": 1430, "tlc_id": "APS", "name": "Apsley" }, "geometry": { "type": "Point", "coordinates": [ -0.46292, 51.73247 ] } },
{ "type": "Feature", "properties": { "nlc_id": 9079, "tlc_id": "ARB", "name": "Arbroath" }, "geometry": { "type": "Point", "coordinates": [ -2.58893, 56.55963 ] } },
{ "type": "Feature", "properties": { "nlc_id": 8613, "tlc_id": "ARD", "name": "Ardgay" }, "geometry": { "type": "Point", "coordinates": [ -4.36212, 57.88154 ] } },
{ "type": "Feature", "properties": { "nlc_id": 9962, "tlc_id": "AUI", "name": "Ardlui" }, "geometry": { "type": "Point", "coordinates": [ -4.7217, 56.30202 ] } },
{ "type": "Feature", "properties": { "nlc_id": 9453, "tlc_id": "ADS", "name": "Ardrossan Harbour" }, "geometry": { "type": "Point", "coordinates": [ -4.82116, 55.63991 ] } },
{ "type": "Feature", "properties": { "nlc_id": 9569, "tlc_id": "ASB", "name": "Ardrossan South Beach" }, "geometry": { "type": "Point", "coordinates": [ -4.80126, 55.64146 ] } },
{ "type": "Feature", "properties": { "nlc_id": 9455, "tlc_id": "ADN", "name": "Ardrossan Town" }, "geometry": { "type": "Point", "coordinates": [ -4.81273, 55.63975 ] } },
{ "type": "Feature", "properties": { "nlc_id": 2960, "tlc_id": "ADK", "name": "Ardwick" }, "geometry": { "type": "Point", "coordinates": [ -2.21389, 53.47133 ] } },
{ "type": "Feature", "properties": { "nlc_id": 9961, "tlc_id": "AGS", "name": "Argyle Street" }, "geometry": { "type": "Point", "coordinates": [ -4.25073, 55.85735 ] } },
{ "type": "Feature", "properties": { "nlc_id": 8821, "tlc_id": "ARG", "name": "Arisaig" }, "geometry": { "type": "Point", "coordinates": [ -5.83915, 56.91261 ] } },
{ "type": "Feature", "properties": { "nlc_id": 6171, "tlc_id": "ARL", "name": "Arlesey" }, "geometry": { "type": "Point", "coordinates": [ -0.2663, 52.02599 ] } },
{ "type": "Feature", "properties": { "nlc_id": 990, "tlc_id": "ARM", "name": "Armadale" }, "geometry": { "type": "Point", "coordinates": [ -3.69544, 55.88575 ] } },
{ "type": "Feature", "properties": { "nlc_id": 2054, "tlc_id": "AWT", "name": "Armathwaite" }, "geometry": { "type": "Point", "coordinates": [ -2.77208, 54.80948 ] } },
{ "type": "Feature", "properties": { "nlc_id": 1963, "tlc_id": "ARN", "name": "Arnside" }, "geometry": { "type": "Point", "coordinates": [ -2.82826, 54.20274 ] } },
{ "type": "Feature", "properties": { "nlc_id": 8045, "tlc_id": "ARR", "name": "Arram" }, "geometry": { "type": "Point", "coordinates": [ -0.42654, 53.88434 ] } },
{ "type": "Feature", "properties": { "nlc_id": 9963, "tlc_id": "ART", "name": "Arrochar & Tarbet" }, "geometry": { "type": "Point", "coordinates": [ -4.72282, 56.20402 ] } },
{ "type": "Feature", "properties": { "nlc_id": 5251, "tlc_id": "ARU", "name": "Arundel" }, "geometry": { "type": "Point", "coordinates": [ -0.54617, 50.84815 ] } },
{ "type": "Feature", "properties": { "nlc_id": 5666, "tlc_id": "ACT", "name": "Ascot" }, "geometry": { "type": "Point", "coordinates": [ -0.67582, 51.40619 ] } },
{ "type": "Feature", "properties": { "nlc_id": 3003, "tlc_id": "AUW", "name": "Ascott-Under-Wychwood" }, "geometry": { "type": "Point", "coordinates": [ -1.56406, 51.8673 ] } },
{ "type": "Feature", "properties": { "nlc_id": 5641, "tlc_id": "ASH", "name": "Ash" }, "geometry": { "type": "Point", "coordinates": [ -0.7128, 51.24954 ] } },
{ "type": "Feature", "properties": { "nlc_id": 5547, "tlc_id": "AHV", "name": "Ash Vale" }, "geometry": { "type": "Point", "coordinates": [ -0.72164, 51.27219 ] } },
{ "type": "Feature", "properties": { "nlc_id": 2941, "tlc_id": "ABY", "name": "Ashburys" }, "geometry": { "type": "Point", "coordinates": [ -2.19445, 53.47163 ] } },
{ "type": "Feature", "properties": { "nlc_id": 4700, "tlc_id": "ASC", "name": "Ashchurch" }, "geometry": { "type": "Point", "coordinates": [ -2.10878, 51.99886 ] } },
{ "type": "Feature", "properties": { "nlc_id": 9953, "tlc_id": "ASF", "name": "Ashfield" }, "geometry": { "type": "Point", "coordinates": [ -4.24925, 55.88897 ] } },
{ "type": "Feature", "properties": { "nlc_id": 5667, "tlc_id": "AFS", "name": "Ashford (Middlesex)" }, "geometry": { "type": "Point", "coordinates": [ -0.46806, 51.43645 ] } },
{ "type": "Feature", "properties": { "nlc_id": 5004, "tlc_id": "AFK", "name": "Ashford International" }, "geometry": { "type": "Point", "coordinates": [ 0.87623, 51.14364 ] } },
{ "type": "Feature", "properties": { "nlc_id": 2850, "tlc_id": "ASY", "name": "Ashley" }, "geometry": { "type": "Point", "coordinates": [ -2.34147, 53.35571 ] } },
{ "type": "Feature", "properties": { "nlc_id": 5347, "tlc_id": "AHD", "name": "Ashtead" }, "geometry": { "type": "Point", "coordinates": [ -0.30756, 51.31781 ] } },
{ "type": "Feature", "properties": { "nlc_id": 2790, "tlc_id": "AHN", "name": "Ashton-Under-Lyne" }, "geometry": { "type": "Point", "coordinates": [ -2.09432, 53.49126 ] } },
{ "type": "Feature", "properties": { "nlc_id": 5398, "tlc_id": "AHS", "name": "Ashurst" }, "geometry": { "type": "Point", "coordinates": [ 0.15267, 51.1286 ] } },
{ "type": "Feature", "properties": { "nlc_id": 5906, "tlc_id": "ANF", "name": "Ashurst New Forest" }, "geometry": { "type": "Point", "coordinates": [ -1.52664, 50.88979 ] } },
{ "type": "Feature", "properties": { "nlc_id": 6083, "tlc_id": "AWM", "name": "Ashwell & Morden" }, "geometry": { "type": "Point", "coordinates": [ -0.10977, 52.03073 ] } },
{ "type": "Feature", "properties": { "nlc_id": 1953, "tlc_id": "ASK", "name": "Askam" }, "geometry": { "type": "Point", "coordinates": [ -3.20454, 54.18894 ] } },
{ "type": "Feature", "properties": { "nlc_id": 6233, "tlc_id": "ALK", "name": "Aslockton" }, "geometry": { "type": "Point", "coordinates": [ -0.89808, 52.95153 ] } },
{ "type": "Feature", "properties": { "nlc_id": 2095, "tlc_id": "ASP", "name": "Aspatria" }, "geometry": { "type": "Point", "coordinates": [ -3.3319, 54.75898 ] } },
{ "type": "Feature", "properties": { "nlc_id": 1380, "tlc_id": "APG", "name": "Aspley Guise" }, "geometry": { "type": "Point", "coordinates": [ -0.63232, 52.02119 ] } },
{ "type": "Feature", "properties": { "nlc_id": 1004, "tlc_id": "AST", "name": "Aston" }, "geometry": { "type": "Point", "coordinates": [ -1.87194, 52.5042 ] } },
{ "type": "Feature", "properties": { "nlc_id": 1074, "tlc_id": "ATH", "name": "Atherstone" }, "geometry": { "type": "Point", "coordinates": [ -1.55281, 52.57894 ] } },
{ "type": "Feature", "properties": { "nlc_id": 2584, "tlc_id": "ATN", "name": "Atherton" }, "geometry": { "type": "Point", "coordinates": [ -2.47899, 53.52914 ] } },
{ "type": "Feature", "properties": { "nlc_id": 8608, "tlc_id": "ATT", "name": "Attadale" }, "geometry": { "type": "Point", "coordinates": [ -5.45564, 57.39511 ] } },
{ "type": "Feature", "properties": { "nlc_id": 1624, "tlc_id": "ATB", "name": "Attenborough" }, "geometry": { "type": "Point", "coordinates": [ -1.23141, 52.90619 ] } },
{ "type": "Feature", "properties": { "nlc_id": 7367, "tlc_id": "ATL", "name": "Attleborough" }, "geometry": { "type": "Point", "coordinates": [ 1.0224, 52.51451 ] } },
{ "type": "Feature", "properties": { "nlc_id": 9457, "tlc_id": "AUK", "name": "Auchinleck" }, "geometry": { "type": "Point", "coordinates": [ -4.29539, 55.47031 ] } },
{ "type": "Feature", "properties": { "nlc_id": 7017, "tlc_id": "AUD", "name": "Audley End" }, "geometry": { "type": "Point", "coordinates": [ 0.20719, 52.0044 ] } },
{ "type": "Feature", "properties": { "nlc_id": 2215, "tlc_id": "AUG", "name": "Aughton Park" }, "geometry": { "type": "Point", "coordinates": [ -2.89524, 53.55424 ] } },
{ "type": "Feature", "properties": { "nlc_id": 8610, "tlc_id": "AVM", "name": "Aviemore" }, "geometry": { "type": "Point", "coordinates": [ -3.82889, 57.18858 ] } },
{ "type": "Feature", "properties": { "nlc_id": 3265, "tlc_id": "AVF", "name": "Avoncliff" }, "geometry": { "type": "Point", "coordinates": [ -2.28135, 51.3396 ] } },
{ "type": "Feature", "properties": { "nlc_id": 3200, "tlc_id": "AVN", "name": "Avonmouth" }, "geometry": { "type": "Point", "coordinates": [ -2.6995, 51.50031 ] } },
{ "type": "Feature", "properties": { "nlc_id": 5714, "tlc_id": "AXM", "name": "Axminster" }, "geometry": { "type": "Point", "coordinates": [ -3.00476, 50.77921 ] } },
{ "type": "Feature", "properties": { "nlc_id": 1492, "tlc_id": "AYS", "name": "Aylesbury" }, "geometry": { "type": "Point", "coordinates": [ -0.81509, 51.81384 ] } },
{ "type": "Feature", "properties": { "nlc_id": 1090, "tlc_id": "AVP", "name": "Aylesbury Vale Parkway" }, "geometry": { "type": "Point", "coordinates": [ -0.86018, 51.83111 ] } },
{ "type": "Feature", "properties": { "nlc_id": 5162, "tlc_id": "AYL", "name": "Aylesford" }, "geometry": { "type": "Point", "coordinates": [ 0.4662, 51.30126 ] } },
{ "type": "Feature", "properties": { "nlc_id": 5197, "tlc_id": "AYH", "name": "Aylesham" }, "geometry": { "type": "Point", "coordinates": [ 1.2095, 51.22719 ] } },
{ "type": "Feature", "properties": { "nlc_id": 9463, "tlc_id": "AYR", "name": "Ayr" }, "geometry": { "type": "Point", "coordinates": [ -4.62593, 55.45818 ] } },
{ "type": "Feature", "properties": { "nlc_id": 2187, "tlc_id": "BAC", "name": "Bache" }, "geometry": { "type": "Point", "coordinates": [ -2.8917, 53.20877 ] } },
{ "type": "Feature", "properties": { "nlc_id": 4186, "tlc_id": "BAJ", "name": "Baglan" }, "geometry": { "type": "Point", "coordinates": [ -3.81119, 51.6155 ] } },
{ "type": "Feature", "properties": { "nlc_id": 5681, "tlc_id": "BAG", "name": "Bagshot" }, "geometry": { "type": "Point", "coordinates": [ -0.68865, 51.36431 ] } },
{ "type": "Feature", "properties": { "nlc_id": 8552, "tlc_id": "BLD", "name": "Baildon" }, "geometry": { "type": "Point", "coordinates": [ -1.75363, 53.85022 ] } },
{ "type": "Feature", "properties": { "nlc_id": 9763, "tlc_id": "BIO", "name": "Baillieston" }, "geometry": { "type": "Point", "coordinates": [ -4.11373, 55.84454 ] } },
{ "type": "Feature", "properties": { "nlc_id": 5492, "tlc_id": "BAB", "name": "Balcombe" }, "geometry": { "type": "Point", "coordinates": [ -0.13692, 51.05546 ] } },
{ "type": "Feature", "properties": { "nlc_id": 6084, "tlc_id": "BDK", "name": "Baldock" }, "geometry": { "type": "Point", "coordinates": [ -0.18754, 51.99283 ] } },
{ "type": "Feature", "properties": { "nlc_id": 5399, "tlc_id": "BAL", "name": "Balham" }, "geometry": { "type": "Point", "coordinates": [ -0.15241, 51.44317 ] } },
{ "type": "Feature", "properties": { "nlc_id": 9862, "tlc_id": "BHC", "name": "Balloch" }, "geometry": { "type": "Point", "coordinates": [ -4.58353, 56.00298 ] } },
{ "type": "Feature", "properties": { "nlc_id": 9013, "tlc_id": "BSI", "name": "Balmossie" }, "geometry": { "type": "Point", "coordinates": [ -2.83896, 56.47462 ] } },
{ "type": "Feature", "properties": { "nlc_id": 2561, "tlc_id": "BMB", "name": "Bamber Bridge" }, "geometry": { "type": "Point", "coordinates": [ -2.66079, 53.72686 ] } },
{ "type": "Feature", "properties": { "nlc_id": 2820, "tlc_id": "BAM", "name": "Bamford" }, "geometry": { "type": "Point", "coordinates": [ -1.68908, 53.33899 ] } },
{ "type": "Feature", "properties": { "nlc_id": 8839, "tlc_id": "BNV", "name": "Banavie" }, "geometry": { "type": "Point", "coordinates": [ -5.09548, 56.84337 ] } },
{ "type": "Feature", "properties": { "nlc_id": 4502, "tlc_id": "BAN", "name": "Banbury" }, "geometry": { "type": "Point", "coordinates": [ -1.32813, 52.06027 ] } },
{ "type": "Feature", "properties": { "nlc_id": 2471, "tlc_id": "BNG", "name": "Bangor (Gwynedd)" }, "geometry": { "type": "Point", "coordinates": [ -4.13593, 53.22227 ] } },
{ "type": "Feature", "properties": { "nlc_id": 2238, "tlc_id": "BAH", "name": "Bank Hall" }, "geometry": { "type": "Point", "coordinates": [ -2.98754, 53.43748 ] } },
{ "type": "Feature", "properties": { "nlc_id": 5348, "tlc_id": "BAD", "name": "Banstead" }, "geometry": { "type": "Point", "coordinates": [ -0.21314, 51.32929 ] } },
{ "type": "Feature", "properties": { "nlc_id": 9466, "tlc_id": "BSS", "name": "Barassie" }, "geometry": { "type": "Point", "coordinates": [ -4.65119, 55.5611 ] } },
{ "type": "Feature", "properties": { "nlc_id": 7563, "tlc_id": "BLL", "name": "Bardon Mill" }, "geometry": { "type": "Point", "coordinates": [ -2.34651, 54.97452 ] } },
{ "type": "Feature", "properties": { "nlc_id": 2690, "tlc_id": "BAR", "name": "Bare Lane" }, "geometry": { "type": "Point", "coordinates": [ -2.83535, 54.07455 ] } },
{ "type": "Feature", "properties": { "nlc_id": 9764, "tlc_id": "BGI", "name": "Bargeddie" }, "geometry": { "type": "Point", "coordinates": [ -4.07384, 55.85133 ] } },
{ "type": "Feature", "properties": { "nlc_id": 4011, "tlc_id": "BGD", "name": "Bargoed" }, "geometry": { "type": "Point", "coordinates": [ -3.22972, 51.69226 ] } },
{ "type": "Feature", "properties": { "nlc_id": 7492, "tlc_id": "BKG", "name": "Barking" }, "geometry": { "type": "Point", "coordinates": [ 0.08093, 51.53944 ] } },
{ "type": "Feature", "properties": { "nlc_id": 5133, "tlc_id": "BMG", "name": "Barming" }, "geometry": { "type": "Point", "coordinates": [ 0.47899, 51.28483 ] } },
{ "type": "Feature", "properties": { "nlc_id": 4445, "tlc_id": "BRM", "name": "Barmouth" }, "geometry": { "type": "Point", "coordinates": [ -4.05665, 52.72287 ] } },
{ "type": "Feature", "properties": { "nlc_id": 5089, "tlc_id": "BNH", "name": "Barnehurst" }, "geometry": { "type": "Point", "coordinates": [ 0.15967, 51.4649 ] } },
{ "type": "Feature", "properties": { "nlc_id": 5551, "tlc_id": "BNS", "name": "Barnes" }, "geometry": { "type": "Point", "coordinates": [ -0.24215, 51.46703 ] } },
{ "type": "Feature", "properties": { "nlc_id": 5580, "tlc_id": "BNI", "name": "Barnes Bridge" }, "geometry": { "type": "Point", "coordinates": [ -0.25261, 51.47195 ] } },
{ "type": "Feature", "properties": { "nlc_id": 6406, "tlc_id": "BTB", "name": "Barnetby" }, "geometry": { "type": "Point", "coordinates": [ -0.40965, 53.57511 ] } },
{ "type": "Feature", "properties": { "nlc_id": 5252, "tlc_id": "BAA", "name": "Barnham" }, "geometry": { "type": "Point", "coordinates": [ -0.63967, 50.83084 ] } },
{ "type": "Feature", "properties": { "nlc_id": 9973, "tlc_id": "BNL", "name": "Barnhill" }, "geometry": { "type": "Point", "coordinates": [ -4.22304, 55.87753 ] } },
{ "type": "Feature", "properties": { "nlc_id": 6774, "tlc_id": "BNY", "name": "Barnsley" }, "geometry": { "type": "Point", "coordinates": [ -1.47716, 53.55429 ] } },
{ "type": "Feature", "properties": { "nlc_id": 5725, "tlc_id": "BNP", "name": "Barnstaple" }, "geometry": { "type": "Point", "coordinates": [ -4.06318, 51.07391 ] } },
{ "type": "Feature", "properties": { "nlc_id": 1096, "tlc_id": "BTG", "name": "Barnt Green" }, "geometry": { "type": "Point", "coordinates": [ -1.99248, 52.36105 ] } },
{ "type": "Feature", "properties": { "nlc_id": 9674, "tlc_id": "BRR", "name": "Barrhead" }, "geometry": { "type": "Point", "coordinates": [ -4.39733, 55.8038 ] } },
{ "type": "Feature", "properties": { "nlc_id": 9467, "tlc_id": "BRL", "name": "Barrhill" }, "geometry": { "type": "Point", "coordinates": [ -4.78184, 55.09703 ] } },
{ "type": "Feature", "properties": { "nlc_id": 6212, "tlc_id": "BAV", "name": "Barrow Haven" }, "geometry": { "type": "Point", "coordinates": [ -0.39293, 53.69741 ] } },
{ "type": "Feature", "properties": { "nlc_id": 1954, "tlc_id": "BIF", "name": "Barrow-In-Furness" }, "geometry": { "type": "Point", "coordinates": [ -3.22615, 54.11901 ] } },
{ "type": "Feature", "properties": { "nlc_id": 1903, "tlc_id": "BWS", "name": "Barrow-Upon-Soar" }, "geometry": { "type": "Point", "coordinates": [ -1.14484, 52.74931 ] } },
{ "type": "Feature", "properties": { "nlc_id": 3805, "tlc_id": "BRY", "name": "Barry" }, "geometry": { "type": "Point", "coordinates": [ -3.28503, 51.39673 ] } },
{ "type": "Feature", "properties": { "nlc_id": 3806, "tlc_id": "BYD", "name": "Barry Docks" }, "geometry": { "type": "Point", "coordinates": [ -3.26075, 51.40239 ] } },
{ "type": "Feature", "properties": { "nlc_id": 3807, "tlc_id": "BYI", "name": "Barry Island" }, "geometry": { "type": "Point", "coordinates": [ -3.27341, 51.39236 ] } },
{ "type": "Feature", "properties": { "nlc_id": 9020, "tlc_id": "BYL", "name": "Barry Links" }, "geometry": { "type": "Point", "coordinates": [ -2.74544, 56.4932 ] } },
{ "type": "Feature", "properties": { "nlc_id": 6207, "tlc_id": "BAU", "name": "Barton-On-Humber" }, "geometry": { "type": "Point", "coordinates": [ -0.44341, 53.68891 ] } },
{ "type": "Feature", "properties": { "nlc_id": 7494, "tlc_id": "BSO", "name": "Basildon" }, "geometry": { "type": "Point", "coordinates": [ 0.45682, 51.56805 ] } },
{ "type": "Feature", "properties": { "nlc_id": 5520, "tlc_id": "BSK", "name": "Basingstoke" }, "geometry": { "type": "Point", "coordinates": [ -1.08726, 51.2683 ] } },
{ "type": "Feature", "properties": { "nlc_id": 5090, "tlc_id": "BBL", "name": "Bat & Ball" }, "geometry": { "type": "Point", "coordinates": [ 0.19425, 51.2897 ] } },
{ "type": "Feature", "properties": { "nlc_id": 3271, "tlc_id": "BTH", "name": "Bath Spa" }, "geometry": { "type": "Point", "coordinates": [ -2.35704, 51.37763 ] } },
{ "type": "Feature", "properties": { "nlc_id": 9311, "tlc_id": "BHG", "name": "Bathgate" }, "geometry": { "type": "Point", "coordinates": [ -3.63612, 55.8972 ] } },
{ "type": "Feature", "properties": { "nlc_id": 8484, "tlc_id": "BTL", "name": "Batley" }, "geometry": { "type": "Point", "coordinates": [ -1.62295, 53.70994 ] } },
{ "type": "Feature", "properties": { "nlc_id": 7909, "tlc_id": "BTT", "name": "Battersby" }, "geometry": { "type": "Point", "coordinates": [ -1.09295, 54.45769 ] } },
{ "type": "Feature", "properties": { "nlc_id": 5420, "tlc_id": "BAK", "name": "Battersea Park" }, "geometry": { "type": "Point", "coordinates": [ -0.14751, 51.4769 ] } },
{ "type": "Feature", "properties": { "nlc_id": 5215, "tlc_id": "BAT", "name": "Battle" }, "geometry": { "type": "Point", "coordinates": [ 0.49473, 50.91285 ] } },
{ "type": "Feature", "properties": { "nlc_id": 6870, "tlc_id": "BLB", "name": "Battlesbridge" }, "geometry": { "type": "Point", "coordinates": [ 0.56532, 51.62477 ] } },
{ "type": "Feature", "properties": { "nlc_id": 6006, "tlc_id": "BAY", "name": "Bayford" }, "geometry": { "type": "Point", "coordinates": [ -0.09559, 51.75767 ] } },
{ "type": "Feature", "properties": { "nlc_id": 3047, "tlc_id": "BCF", "name": "Beaconsfield" }, "geometry": { "type": "Point", "coordinates": [ -0.64381, 51.61124 ] } },
{ "type": "Feature", "properties": { "nlc_id": 2420, "tlc_id": "BER", "name": "Bearley" }, "geometry": { "type": "Point", "coordinates": [ -1.75026, 52.24437 ] } },
{ "type": "Feature", "properties": { "nlc_id": 9966, "tlc_id": "BRN", "name": "Bearsden" }, "geometry": { "type": "Point", "coordinates": [ -4.33206, 55.91717 ] } },
{ "type": "Feature", "properties": { "nlc_id": 5091, "tlc_id": "BSD", "name": "Bearsted" }, "geometry": { "type": "Point", "coordinates": [ 0.57761, 51.27576 ] } },
{ "type": "Feature", "properties": { "nlc_id": 8822, "tlc_id": "BSL", "name": "Beasdale" }, "geometry": { "type": "Point", "coordinates": [ -5.76387, 56.89962 ] } },
{ "type": "Feature", "properties": { "nlc_id": 5890, "tlc_id": "BEU", "name": "Beaulieu Road" }, "geometry": { "type": "Point", "coordinates": [ -1.50476, 50.85498 ] } },
{ "type": "Feature", "properties": { "nlc_id": 8877, "tlc_id": "BEL", "name": "Beauly" }, "geometry": { "type": "Point", "coordinates": [ -4.4699, 57.47836 ] } },
{ "type": "Feature", "properties": { "nlc_id": 2188, "tlc_id": "BEB", "name": "Bebington" }, "geometry": { "type": "Point", "coordinates": [ -3.00366, 53.35764 ] } },
{ "type": "Feature", "properties": { "nlc_id": 7258, "tlc_id": "BCC", "name": "Beccles" }, "geometry": { "type": "Point", "coordinates": [ 1.56955, 52.45848 ] } },
{ "type": "Feature", "properties": { "nlc_id": 5076, "tlc_id": "BEC", "name": "Beckenham Hill" }, "geometry": { "type": "Point", "coordinates": [ -0.01593, 51.42453 ] } },
{ "type": "Feature", "properties": { "nlc_id": 5046, "tlc_id": "BKJ", "name": "Beckenham Junction" }, "geometry": { "type": "Point", "coordinates": [ -0.026, 51.41112 ] } },
{ "type": "Feature", "properties": { "nlc_id": 1512, "tlc_id": "BDM", "name": "Bedford Midland" }, "geometry": { "type": "Point", "coordinates": [ -0.47943, 52.13615 ] } },
{ "type": "Feature", "properties": { "nlc_id": 1510, "tlc_id": "BSJ", "name": "Bedford St.Johns" }, "geometry": { "type": "Point", "coordinates": [ -0.46748, 52.12944 ] } },
{ "type": "Feature", "properties": { "nlc_id": 5538, "tlc_id": "BDH", "name": "Bedhampton" }, "geometry": { "type": "Point", "coordinates": [ -0.99583, 50.85389 ] } },
{ "type": "Feature", "properties": { "nlc_id": 3245, "tlc_id": "BMT", "name": "Bedminster" }, "geometry": { "type": "Point", "coordinates": [ -2.59418, 51.44004 ] } },
{ "type": "Feature", "properties": { "nlc_id": 1165, "tlc_id": "BEH", "name": "Bedworth" }, "geometry": { "type": "Point", "coordinates": [ -1.46739, 52.47926 ] } },
{ "type": "Feature", "properties": { "nlc_id": 3070, "tlc_id": "BDW", "name": "Bedwyn" }, "geometry": { "type": "Point", "coordinates": [ -1.5988, 51.37959 ] } },
{ "type": "Feature", "properties": { "nlc_id": 1625, "tlc_id": "BEE", "name": "Beeston" }, "geometry": { "type": "Point", "coordinates": [ -1.20765, 52.92073 ] } },
{ "type": "Feature", "properties": { "nlc_id": 5198, "tlc_id": "BKS", "name": "Bekesbourne" }, "geometry": { "type": "Point", "coordinates": [ 1.13675, 51.26129 ] } },
{ "type": "Feature", "properties": { "nlc_id": 2785, "tlc_id": "BLV", "name": "Belle Vue" }, "geometry": { "type": "Point", "coordinates": [ -2.18052, 53.46236 ] } },
{ "type": "Feature", "properties": { "nlc_id": 9895, "tlc_id": "BLG", "name": "Bellgrove" }, "geometry": { "type": "Point", "coordinates": [ -4.22441, 55.85675 ] } },
{ "type": "Feature", "properties": { "nlc_id": 5062, "tlc_id": "BGM", "name": "Bellingham" }, "geometry": { "type": "Point", "coordinates": [ -0.01931, 51.43286 ] } },
{ "type": "Feature", "properties": { "nlc_id": 9714, "tlc_id": "BLH", "name": "Bellshill" }, "geometry": { "type": "Point", "coordinates": [ -4.02453, 55.81711 ] } },
{ "type": "Feature", "properties": { "nlc_id": 5350, "tlc_id": "BLM", "name": "Belmont" }, "geometry": { "type": "Point", "coordinates": [ -0.19884, 51.34376 ] } },
{ "type": "Feature", "properties": { "nlc_id": 1679, "tlc_id": "BLP", "name": "Belper" }, "geometry": { "type": "Point", "coordinates": [ -1.48251, 53.02374 ] } },
{ "type": "Feature", "properties": { "nlc_id": 5227, "tlc_id": "BEG", "name": "Beltring" }, "geometry": { "type": "Point", "coordinates": [ 0.40352, 51.20465 ] } },
{ "type": "Feature", "properties": { "nlc_id": 5092, "tlc_id": "BVD", "name": "Belvedere" }, "geometry": { "type": "Point", "coordinates": [ 0.15231, 51.49206 ] } },
{ "type": "Feature", "properties": { "nlc_id": 8047, "tlc_id": "BEM", "name": "Bempton" }, "geometry": { "type": "Point", "coordinates": [ -0.18042, 54.12766 ] } },
{ "type": "Feature", "properties": { "nlc_id": 8564, "tlc_id": "BEY", "name": "Ben Rhydding" }, "geometry": { "type": "Point", "coordinates": [ -1.79743, 53.92571 ] } },
{ "type": "Feature", "properties": { "nlc_id": 7439, "tlc_id": "BEF", "name": "Benfleet" }, "geometry": { "type": "Point", "coordinates": [ 0.56175, 51.54389 ] } },
{ "type": "Feature", "properties": { "nlc_id": 2676, "tlc_id": "BEN", "name": "Bentham" }, "geometry": { "type": "Point", "coordinates": [ -2.51069, 54.11552 ] } },
{ "type": "Feature", "properties": { "nlc_id": 5624, "tlc_id": "BTY", "name": "Bentley" }, "geometry": { "type": "Point", "coordinates": [ -0.86812, 51.18117 ] } },
{ "type": "Feature", "properties": { "nlc_id": 8352, "tlc_id": "BYK", "name": "Bentley (S. Yorks)" }, "geometry": { "type": "Point", "coordinates": [ -1.15094, 53.54393 ] } },
{ "type": "Feature", "properties": { "nlc_id": 3549, "tlc_id": "BAS", "name": "Bere Alston" }, "geometry": { "type": "Point", "coordinates": [ -4.20042, 50.48553 ] } },
{ "type": "Feature", "properties": { "nlc_id": 3550, "tlc_id": "BFE", "name": "Bere Ferrers" }, "geometry": { "type": "Point", "coordinates": [ -4.1815, 50.45121 ] } },
{ "type": "Feature", "properties": { "nlc_id": 1390, "tlc_id": "BKM", "name": "Berkhamsted" }, "geometry": { "type": "Point", "coordinates": [ -0.562, 51.76308 ] } },
{ "type": "Feature", "properties": { "nlc_id": 1045, "tlc_id": "BKW", "name": "Berkswell" }, "geometry": { "type": "Point", "coordinates": [ -1.64285, 52.39585 ] } },
{ "type": "Feature", "properties": { "nlc_id": 6543, "tlc_id": "BEP", "name": "Bermuda Park" }, "geometry": { "type": "Point", "coordinates": [ -1.47218, 52.5014 ] } },
{ "type": "Feature", "properties": { "nlc_id": 7330, "tlc_id": "BYA", "name": "Berney Arms" }, "geometry": { "type": "Point", "coordinates": [ 1.63044, 52.58975 ] } },
{ "type": "Feature", "properties": { "nlc_id": 8431, "tlc_id": "BBW", "name": "Berry Brow" }, "geometry": { "type": "Point", "coordinates": [ -1.79343, 53.62103 ] } },
{ "type": "Feature", "properties": { "nlc_id": 5581, "tlc_id": "BRS", "name": "Berrylands" }, "geometry": { "type": "Point", "coordinates": [ -0.2807, 51.39899 ] } },
{ "type": "Feature", "properties": { "nlc_id": 5323, "tlc_id": "BRK", "name": "Berwick (Sussex)" }, "geometry": { "type": "Point", "coordinates": [ 0.16604, 50.84031 ] } },
{ "type": "Feature", "properties": { "nlc_id": 7791, "tlc_id": "BWK", "name": "Berwick-Upon-Tweed" }, "geometry": { "type": "Point", "coordinates": [ -2.01096, 55.77437 ] } },
{ "type": "Feature", "properties": { "nlc_id": 2351, "tlc_id": "BES", "name": "Bescar Lane" }, "geometry": { "type": "Point", "coordinates": [ -2.91463, 53.62385 ] } },
{ "type": "Feature", "properties": { "nlc_id": 1003, "tlc_id": "BSC", "name": "Bescot Stadium" }, "geometry": { "type": "Point", "coordinates": [ -1.99112, 52.56306 ] } },
{ "type": "Feature", "properties": { "nlc_id": 5472, "tlc_id": "BTO", "name": "Betchworth" }, "geometry": { "type": "Point", "coordinates": [ -0.26696, 51.24813 ] } },
{ "type": "Feature", "properties": { "nlc_id": 6961, "tlc_id": "BET", "name": "Bethnal Green" }, "geometry": { "type": "Point", "coordinates": [ -0.05955, 51.52386 ] } },
{ "type": "Feature", "properties": { "nlc_id": 2449, "tlc_id": "BYC", "name": "Betws-y-Coed" }, "geometry": { "type": "Point", "coordinates": [ -3.80091, 53.09205 ] } },
{ "type": "Feature", "properties": { "nlc_id": 8048, "tlc_id": "BEV", "name": "Beverley" }, "geometry": { "type": "Point", "coordinates": [ -0.42295, 53.84227 ] } },
{ "type": "Feature", "properties": { "nlc_id": 5211, "tlc_id": "BEX", "name": "Bexhill" }, "geometry": { "type": "Point", "coordinates": [ 0.47704, 50.84097 ] } },
{ "type": "Feature", "properties": { "nlc_id": 5093, "tlc_id": "BXY", "name": "Bexley" }, "geometry": { "type": "Point", "coordinates": [ 0.14793, 51.44016 ] } },
{ "type": "Feature", "properties": { "nlc_id": 5094, "tlc_id": "BXH", "name": "Bexleyheath" }, "geometry": { "type": "Point", "coordinates": [ 0.13376, 51.46344 ] } },
{ "type": "Feature", "properties": { "nlc_id": 3048, "tlc_id": "BCS", "name": "Bicester North" }, "geometry": { "type": "Point", "coordinates": [ -1.15038, 51.90344 ] } },
{ "type": "Feature", "properties": { "nlc_id": 3104, "tlc_id": "BIT", "name": "Bicester Village" }, "geometry": { "type": "Point", "coordinates": [ -1.14876, 51.89298 ] } },
{ "type": "Feature", "properties": { "nlc_id": 5063, "tlc_id": "BKL", "name": "Bickley" }, "geometry": { "type": "Point", "coordinates": [ 0.04526, 51.40005 ] } },
{ "type": "Feature", "properties": { "nlc_id": 2136, "tlc_id": "BID", "name": "Bidston" }, "geometry": { "type": "Point", "coordinates": [ -3.07859, 53.40913 ] } },
{ "type": "Feature", "properties": { "nlc_id": 6170, "tlc_id": "BIW", "name": "Biggleswade" }, "geometry": { "type": "Point", "coordinates": [ -0.26117, 52.08464 ] } },
{ "type": "Feature", "properties": { "nlc_id": 4618, "tlc_id": "BBK", "name": "Bilbrook" }, "geometry": { "type": "Point", "coordinates": [ -2.1861, 52.62369 ] } },
{ "type": "Feature", "properties": { "nlc_id": 6871, "tlc_id": "BIC", "name": "Billericay" }, "geometry": { "type": "Point", "coordinates": [ 0.41866, 51.62883 ] } },
{ "type": "Feature", "properties": { "nlc_id": 7910, "tlc_id": "BIL", "name": "Billingham" }, "geometry": { "type": "Point", "coordinates": [ -1.2797, 54.60562 ] } },
{ "type": "Feature", "properties": { "nlc_id": 5464, "tlc_id": "BIG", "name": "Billingshurst" }, "geometry": { "type": "Point", "coordinates": [ -0.45029, 51.01514 ] } },
{ "type": "Feature", "properties": { "nlc_id": 6235, "tlc_id": "BIN", "name": "Bingham" }, "geometry": { "type": "Point", "coordinates": [ -0.95153, 52.95417 ] } },
{ "type": "Feature", "properties": { "nlc_id": 8553, "tlc_id": "BIY", "name": "Bingley" }, "geometry": { "type": "Point", "coordinates": [ -1.83732, 53.84861 ] } },
{ "type": "Feature", "properties": { "nlc_id": 3907, "tlc_id": "BCG", "name": "Birchgrove" }, "geometry": { "type": "Point", "coordinates": [ -3.20189, 51.52151 ] } },
{ "type": "Feature", "properties": { "nlc_id": 5163, "tlc_id": "BCH", "name": "Birchington-On-Sea" }, "geometry": { "type": "Point", "coordinates": [ 1.30145, 51.37743 ] } },
{ "type": "Feature", "properties": { "nlc_id": 2304, "tlc_id": "BWD", "name": "Birchwood" }, "geometry": { "type": "Point", "coordinates": [ -2.52532, 53.41271 ] } },
{ "type": "Feature", "properties": { "nlc_id": 5401, "tlc_id": "BIK", "name": "Birkbeck" }, "geometry": { "type": "Point", "coordinates": [ -0.05572, 51.40383 ] } },
{ "type": "Feature", "properties": { "nlc_id": 2352, "tlc_id": "BDL", "name": "Birkdale" }, "geometry": { "type": "Point", "coordinates": [ -3.01448, 53.63404 ] } },
{ "type": "Feature", "properties": { "nlc_id": 2217, "tlc_id": "BKC", "name": "Birkenhead Central" }, "geometry": { "type": "Point", "coordinates": [ -3.02085, 53.3883 ] } },
{ "type": "Feature", "properties": { "nlc_id": 2219, "tlc_id": "BKQ", "name": "Birkenhead Hamilton Square" }, "geometry": { "type": "Point", "coordinates": [ -3.01371, 53.39468 ] } },
{ "type": "Feature", "properties": { "nlc_id": 2145, "tlc_id": "BKN", "name": "Birkenhead North" }, "geometry": { "type": "Point", "coordinates": [ -3.05756, 53.40443 ] } },
{ "type": "Feature", "properties": { "nlc_id": 2220, "tlc_id": "BKP", "name": "Birkenhead Park" }, "geometry": { "type": "Point", "coordinates": [ -3.03913, 53.3974 ] } },
{ "type": "Feature", "properties": { "nlc_id": 4513, "tlc_id": "BBS", "name": "Birmingham Bordesley" }, "geometry": { "type": "Point", "coordinates": [ -1.87778, 52.47184 ] } },
{ "type": "Feature", "properties": { "nlc_id": 1215, "tlc_id": "BHI", "name": "Birmingham International" }, "geometry": { "type": "Point", "coordinates": [ -1.72586, 52.45077 ] } },
{ "type": "Feature", "properties": { "nlc_id": 4515, "tlc_id": "BMO", "name": "Birmingham Moor Street" }, "geometry": { "type": "Point", "coordinates": [ -1.89248, 52.47905 ] } },
{ "type": "Feature", "properties": { "nlc_id": 1127, "tlc_id": "BHM", "name": "Birmingham New Street" }, "geometry": { "type": "Point", "coordinates": [ -1.90021, 52.47779 ] } },
{ "type": "Feature", "properties": { "nlc_id": 1006, "tlc_id": "BSW", "name": "Birmingham Snow Hill" }, "geometry": { "type": "Point", "coordinates": [ -1.8991, 52.48332 ] } },
{ "type": "Feature", "properties": { "nlc_id": 7835, "tlc_id": "BIA", "name": "Bishop Auckland" }, "geometry": { "type": "Point", "coordinates": [ -1.67771, 54.65721 ] } },
{ "type": "Feature", "properties": { "nlc_id": 9940, "tlc_id": "BBG", "name": "Bishopbriggs" }, "geometry": { "type": "Point", "coordinates": [ -4.22495, 55.90392 ] } },
{ "type": "Feature", "properties": { "nlc_id": 6800, "tlc_id": "BIS", "name": "Bishops Stortford" }, "geometry": { "type": "Point", "coordinates": [ 0.16492, 51.86664 ] } },
{ "type": "Feature", "properties": { "nlc_id": 5402, "tlc_id": "BIP", "name": "Bishopstone" }, "geometry": { "type": "Point", "coordinates": [ 0.08278, 50.78007 ] } },
{ "type": "Feature", "properties": { "nlc_id": 9620, "tlc_id": "BPT", "name": "Bishopton" }, "geometry": { "type": "Point", "coordinates": [ -4.50053, 55.90231 ] } },
{ "type": "Feature", "properties": { "nlc_id": 5945, "tlc_id": "BTE", "name": "Bitterne" }, "geometry": { "type": "Point", "coordinates": [ -1.37701, 50.91816 ] } },
{ "type": "Feature", "properties": { "nlc_id": 2737, "tlc_id": "BBN", "name": "Blackburn" }, "geometry": { "type": "Point", "coordinates": [ -2.47914, 53.74651 ] } },
{ "type": "Feature", "properties": { "nlc_id": 5112, "tlc_id": "BFR", "name": "Blackfriars" }, "geometry": { "type": "Point", "coordinates": [ -0.10331, 51.51175 ] } },
{ "type": "Feature", "properties": { "nlc_id": 5095, "tlc_id": "BKH", "name": "Blackheath" }, "geometry": { "type": "Point", "coordinates": [ 0.00889, 51.46574 ] } },
{ "type": "Feature", "properties": { "nlc_id": 7400, "tlc_id": "BHO", "name": "Blackhorse Road" }, "geometry": { "type": "Point", "coordinates": [ -0.04121, 51.58655 ] } },
{ "type": "Feature", "properties": { "nlc_id": 2739, "tlc_id": "BPN", "name": "Blackpool North" }, "geometry": { "type": "Point", "coordinates": [ -3.0493, 53.82191 ] } },
{ "type": "Feature", "properties": { "nlc_id": 2738, "tlc_id": "BPB", "name": "Blackpool Pleasure Beach" }, "geometry": { "type": "Point", "coordinates": [ -3.0539, 53.78795 ] } },
{ "type": "Feature", "properties": { "nlc_id": 2740, "tlc_id": "BPS", "name": "Blackpool South" }, "geometry": { "type": "Point", "coordinates": [ -3.04896, 53.7987 ] } },
{ "type": "Feature", "properties": { "nlc_id": 991, "tlc_id": "BKR", "name": "Blackridge" }, "geometry": { "type": "Point", "coordinates": [ -3.75082, 55.88429 ] } },
{ "type": "Feature", "properties": { "nlc_id": 2732, "tlc_id": "BLK", "name": "Blackrod" }, "geometry": { "type": "Point", "coordinates": [ -2.56954, 53.59152 ] } },
{ "type": "Feature", "properties": { "nlc_id": 5625, "tlc_id": "BAW", "name": "Blackwater" }, "geometry": { "type": "Point", "coordinates": [ -0.77674, 51.33152 ] } },
{ "type": "Feature", "properties": { "nlc_id": 2450, "tlc_id": "BFF", "name": "Blaenau Ffestiniog" }, "geometry": { "type": "Point", "coordinates": [ -3.93864, 52.99453 ] } },
{ "type": "Feature", "properties": { "nlc_id": 8750, "tlc_id": "BLA", "name": "Blair Atholl" }, "geometry": { "type": "Point", "coordinates": [ -3.85025, 56.76561 ] } },
{ "type": "Feature", "properties": { "nlc_id": 9760, "tlc_id": "BAI", "name": "Blairhill" }, "geometry": { "type": "Point", "coordinates": [ -4.04333, 55.86649 ] } },
{ "type": "Feature", "properties": { "nlc_id": 1176, "tlc_id": "BKT", "name": "Blake Street" }, "geometry": { "type": "Point", "coordinates": [ -1.84492, 52.60486 ] } },
{ "type": "Feature", "properties": { "nlc_id": 4574, "tlc_id": "BKD", "name": "Blakedown" }, "geometry": { "type": "Point", "coordinates": [ -2.17688, 52.40637 ] } },
{ "type": "Feature", "properties": { "nlc_id": 9716, "tlc_id": "BLT", "name": "Blantyre" }, "geometry": { "type": "Point", "coordinates": [ -4.08701, 55.79737 ] } },
{ "type": "Feature", "properties": { "nlc_id": 7503, "tlc_id": "BLO", "name": "Blaydon" }, "geometry": { "type": "Point", "coordinates": [ -1.71257, 54.96581 ] } },
{ "type": "Feature", "properties": { "nlc_id": 6204, "tlc_id": "BSB", "name": "Bleasby" }, "geometry": { "type": "Point", "coordinates": [ -0.94367, 53.04134 ] } },
{ "type": "Feature", "properties": { "nlc_id": 1360, "tlc_id": "BLY", "name": "Bletchley" }, "geometry": { "type": "Point", "coordinates": [ -0.73631, 51.99529 ] } },
{ "type": "Feature", "properties": { "nlc_id": 1141, "tlc_id": "BLX", "name": "Bloxwich" }, "geometry": { "type": "Point", "coordinates": [ -2.01149, 52.61817 ] } },
{ "type": "Feature", "properties": { "nlc_id": 1018, "tlc_id": "BWN", "name": "Bloxwich North" }, "geometry": { "type": "Point", "coordinates": [ -2.0177, 52.62541 ] } },
{ "type": "Feature", "properties": { "nlc_id": 2123, "tlc_id": "BLN", "name": "Blundellsands & Crosby" }, "geometry": { "type": "Point", "coordinates": [ -3.03989, 53.48768 ] } },
{ "type": "Feature", "properties": { "nlc_id": 1282, "tlc_id": "BYB", "name": "Blythe Bridge" }, "geometry": { "type": "Point", "coordinates": [ -2.06697, 52.96812 ] } },
{ "type": "Feature", "properties": { "nlc_id": 3501, "tlc_id": "BOD", "name": "Bodmin Parkway" }, "geometry": { "type": "Point", "coordinates": [ -4.663, 50.44579 ] } },
{ "type": "Feature", "properties": { "nlc_id": 2435, "tlc_id": "BOR", "name": "Bodorgan" }, "geometry": { "type": "Point", "coordinates": [ -4.41806, 53.20429 ] } },
{ "type": "Feature", "properties": { "nlc_id": 5253, "tlc_id": "BOG", "name": "Bognor Regis" }, "geometry": { "type": "Point", "coordinates": [ -0.67617, 50.78649 ] } },
{ "type": "Feature", "properties": { "nlc_id": 9668, "tlc_id": "BGS", "name": "Bogston" }, "geometry": { "type": "Point", "coordinates": [ -4.71145, 55.93709 ] } },
{ "type": "Feature", "properties": { "nlc_id": 2599, "tlc_id": "BON", "name": "Bolton" }, "geometry": { "type": "Point", "coordinates": [ -2.42584, 53.57414 ] } },
{ "type": "Feature", "properties": { "nlc_id": 8536, "tlc_id": "BTD", "name": "Bolton-On-Dearne" }, "geometry": { "type": "Point", "coordinates": [ -1.31154, 53.51894 ] } },
{ "type": "Feature", "properties": { "nlc_id": 5626, "tlc_id": "BKA", "name": "Bookham" }, "geometry": { "type": "Point", "coordinates": [ -0.38401, 51.28868 ] } },
{ "type": "Feature", "properties": { "nlc_id": 1993, "tlc_id": "BOC", "name": "Bootle (Cumbria)" }, "geometry": { "type": "Point", "coordinates": [ -3.39389, 54.29131 ] } },
{ "type": "Feature", "properties": { "nlc_id": 2195, "tlc_id": "BNW", "name": "Bootle New Strand" }, "geometry": { "type": "Point", "coordinates": [ -2.99477, 53.45338 ] } },
{ "type": "Feature", "properties": { "nlc_id": 2239, "tlc_id": "BOT", "name": "Bootle Oriel Road" }, "geometry": { "type": "Point", "coordinates": [ -2.99576, 53.44661 ] } },
{ "type": "Feature", "properties": { "nlc_id": 5130, "tlc_id": "BRG", "name": "Borough Green & Wrotham" }, "geometry": { "type": "Point", "coordinates": [ 0.30627, 51.29316 ] } },
{ "type": "Feature", "properties": { "nlc_id": 4304, "tlc_id": "BRH", "name": "Borth" }, "geometry": { "type": "Point", "coordinates": [ -4.05023, 52.491 ] } },
{ "type": "Feature", "properties": { "nlc_id": 5254, "tlc_id": "BOH", "name": "Bosham" }, "geometry": { "type": "Point", "coordinates": [ -0.84743, 50.84268 ] } },
{ "type": "Feature", "properties": { "nlc_id": 6216, "tlc_id": "BSN", "name": "Boston" }, "geometry": { "type": "Point", "coordinates": [ -0.03097, 52.97806 ] } },
{ "type": "Feature", "properties": { "nlc_id": 5894, "tlc_id": "BOE", "name": "Botley" }, "geometry": { "type": "Point", "coordinates": [ -1.25924, 50.91639 ] } },
{ "type": "Feature", "properties": { "nlc_id": 6237, "tlc_id": "BTF", "name": "Bottesford" }, "geometry": { "type": "Point", "coordinates": [ -0.79483, 52.94459 ] } },
{ "type": "Feature", "properties": { "nlc_id": 3018, "tlc_id": "BNE", "name": "Bourne End" }, "geometry": { "type": "Point", "coordinates": [ -0.71046, 51.57707 ] } },
{ "type": "Feature", "properties": { "nlc_id": 5876, "tlc_id": "BMH", "name": "Bournemouth" }, "geometry": { "type": "Point", "coordinates": [ -1.86452, 50.72721 ] } },
{ "type": "Feature", "properties": { "nlc_id": 1112, "tlc_id": "BRV", "name": "Bournville" }, "geometry": { "type": "Point", "coordinates": [ -1.92643, 52.42693 ] } },
{ "type": "Feature", "properties": { "nlc_id": 1381, "tlc_id": "BWB", "name": "Bow Brickhill" }, "geometry": { "type": "Point", "coordinates": [ -0.69607, 52.00426 ] } },
{ "type": "Feature", "properties": { "nlc_id": 6027, "tlc_id": "BOP", "name": "Bowes Park" }, "geometry": { "type": "Point", "coordinates": [ -0.12056, 51.60696 ] } },
{ "type": "Feature", "properties": { "nlc_id": 9968, "tlc_id": "BWG", "name": "Bowling" }, "geometry": { "type": "Point", "coordinates": [ -4.49389, 55.93113 ] } },
{ "type": "Feature", "properties": { "nlc_id": 5403, "tlc_id": "BXW", "name": "Boxhill & Westhumble" }, "geometry": { "type": "Point", "coordinates": [ -0.32848, 51.25395 ] } },
{ "type": "Feature", "properties": { "nlc_id": 5693, "tlc_id": "BCE", "name": "Bracknell" }, "geometry": { "type": "Point", "coordinates": [ -0.7517, 51.41304 ] } },
{ "type": "Feature", "properties": { "nlc_id": 8346, "tlc_id": "BDQ", "name": "Bradford Forster Square" }, "geometry": { "type": "Point", "coordinates": [ -1.75296, 53.79692 ] } },
{ "type": "Feature", "properties": { "nlc_id": 8345, "tlc_id": "BDI", "name": "Bradford Interchange" }, "geometry": { "type": "Point", "coordinates": [ -1.74959, 53.79107 ] } },
{ "type": "Feature", "properties": { "nlc_id": 3341, "tlc_id": "BOA", "name": "Bradford-On-Avon" }, "geometry": { "type": "Point", "coordinates": [ -2.25235, 51.34486 ] } },
{ "type": "Feature", "properties": { "nlc_id": 5530, "tlc_id": "BDN", "name": "Brading" }, "geometry": { "type": "Point", "coordinates": [ -1.13873, 50.6783 ] } },
{ "type": "Feature", "properties": { "nlc_id": 6801, "tlc_id": "BTR", "name": "Braintree" }, "geometry": { "type": "Point", "coordinates": [ 0.55672, 51.87534 ] } },
{ "type": "Feature", "properties": { "nlc_id": 2053, "tlc_id": "BTP", "name": "Braintree Freeport" }, "geometry": { "type": "Point", "coordinates": [ 0.56847, 51.86937 ] } },
{ "type": "Feature", "properties": { "nlc_id": 2944, "tlc_id": "BML", "name": "Bramhall" }, "geometry": { "type": "Point", "coordinates": [ -2.1636, 53.3606 ] } },
{ "type": "Feature", "properties": { "nlc_id": 5500, "tlc_id": "BMY", "name": "Bramley (Hampshire)" }, "geometry": { "type": "Point", "coordinates": [ -1.061, 51.33024 ] } },
{ "type": "Feature", "properties": { "nlc_id": 8496, "tlc_id": "BLE", "name": "Bramley (West Yorkshire)" }, "geometry": { "type": "Point", "coordinates": [ -1.6372, 53.80534 ] } },
{ "type": "Feature", "properties": { "nlc_id": 7565, "tlc_id": "BMP", "name": "Brampton (Cumbria)" }, "geometry": { "type": "Point", "coordinates": [ -2.70296, 54.93241 ] } },
{ "type": "Feature", "properties": { "nlc_id": 7259, "tlc_id": "BRP", "name": "Brampton (Suffolk)" }, "geometry": { "type": "Point", "coordinates": [ 1.54387, 52.39539 ] } },
{ "type": "Feature", "properties": { "nlc_id": 9938, "tlc_id": "BCN", "name": "Branchton" }, "geometry": { "type": "Point", "coordinates": [ -4.8036, 55.94064 ] } },
{ "type": "Feature", "properties": { "nlc_id": 7200, "tlc_id": "BND", "name": "Brandon" }, "geometry": { "type": "Point", "coordinates": [ 0.62477, 52.45397 ] } },
{ "type": "Feature", "properties": { "nlc_id": 5875, "tlc_id": "BSM", "name": "Branksome" }, "geometry": { "type": "Point", "coordinates": [ -1.91978, 50.7269 ] } },
{ "type": "Feature", "properties": { "nlc_id": 2045, "tlc_id": "BYS", "name": "Braystones" }, "geometry": { "type": "Point", "coordinates": [ -3.54186, 54.43937 ] } },
{ "type": "Feature", "properties": { "nlc_id": 2779, "tlc_id": "BDY", "name": "Bredbury" }, "geometry": { "type": "Point", "coordinates": [ -2.1105, 53.42314 ] } },
{ "type": "Feature", "properties": { "nlc_id": 9251, "tlc_id": "BRC", "name": "Breich" }, "geometry": { "type": "Point", "coordinates": [ -3.66815, 55.82735 ] } },
{ "type": "Feature", "properties": { "nlc_id": 5552, "tlc_id": "BFD", "name": "Brentford" }, "geometry": { "type": "Point", "coordinates": [ -0.30963, 51.48749 ] } },
{ "type": "Feature", "properties": { "nlc_id": 6872, "tlc_id": "BRE", "name": "Brentwood" }, "geometry": { "type": "Point", "coordinates": [ 0.29961, 51.61355 ] } },
{ "type": "Feature", "properties": { "nlc_id": 1560, "tlc_id": "BWO", "name": "Bricket Wood" }, "geometry": { "type": "Point", "coordinates": [ -0.3591, 51.70538 ] } },
{ "type": "Feature", "properties": { "nlc_id": 9889, "tlc_id": "BEA", "name": "Bridge Of Allan" }, "geometry": { "type": "Point", "coordinates": [ -3.95726, 56.15668 ] } },
{ "type": "Feature", "properties": { "nlc_id": 8823, "tlc_id": "BRO", "name": "Bridge Of Orchy" }, "geometry": { "type": "Point", "coordinates": [ -4.76304, 56.51593 ] } },
{ "type": "Feature", "properties": { "nlc_id": 3809, "tlc_id": "BGN", "name": "Bridgend" }, "geometry": { "type": "Point", "coordinates": [ -3.57532, 51.50693 ] } },
{ "type": "Feature", "properties": { "nlc_id": 9789, "tlc_id": "BDG", "name": "Bridgeton" }, "geometry": { "type": "Point", "coordinates": [ -4.2261, 55.84901 ] } },
{ "type": "Feature", "properties": { "nlc_id": 3449, "tlc_id": "BWT", "name": "Bridgwater" }, "geometry": { "type": "Point", "coordinates": [ -2.99044, 51.1278 ] } },
{ "type": "Feature", "properties": { "nlc_id": 8049, "tlc_id": "BDT", "name": "Bridlington" }, "geometry": { "type": "Point", "coordinates": [ -0.19868, 54.08413 ] } },
{ "type": "Feature", "properties": { "nlc_id": 2554, "tlc_id": "BRF", "name": "Brierfield" }, "geometry": { "type": "Point", "coordinates": [ -2.2365, 53.82398 ] } },
{ "type": "Feature", "properties": { "nlc_id": 6464, "tlc_id": "BGG", "name": "Brigg" }, "geometry": { "type": "Point", "coordinates": [ -0.4861, 53.54913 ] } },
{ "type": "Feature", "properties": { "nlc_id": 8514, "tlc_id": "BGH", "name": "Brighouse" }, "geometry": { "type": "Point", "coordinates": [ -1.77944, 53.69819 ] } },
{ "type": "Feature", "properties": { "nlc_id": 5268, "tlc_id": "BTN", "name": "Brighton" }, "geometry": { "type": "Point", "coordinates": [ -0.14127, 50.82894 ] } },
{ "type": "Feature", "properties": { "nlc_id": 6810, "tlc_id": "BMD", "name": "Brimsdown" }, "geometry": { "type": "Point", "coordinates": [ -0.03079, 51.65553 ] } },
{ "type": "Feature", "properties": { "nlc_id": 2603, "tlc_id": "BNT", "name": "Brinnington" }, "geometry": { "type": "Point", "coordinates": [ -2.13513, 53.43211 ] } },
{ "type": "Feature", "properties": { "nlc_id": 3230, "tlc_id": "BPW", "name": "Bristol Parkway" }, "geometry": { "type": "Point", "coordinates": [ -2.54219, 51.51375 ] } },
{ "type": "Feature", "properties": { "nlc_id": 3231, "tlc_id": "BRI", "name": "Bristol Temple Meads" }, "geometry": { "type": "Point", "coordinates": [ -2.58134, 51.44909 ] } },
{ "type": "Feature", "properties": { "nlc_id": 4012, "tlc_id": "BHD", "name": "Brithdir" }, "geometry": { "type": "Point", "coordinates": [ -3.22876, 51.71026 ] } },
{ "type": "Feature", "properties": { "nlc_id": 7932, "tlc_id": "RBS", "name": "British Steel Redcar" }, "geometry": { "type": "Point", "coordinates": [ -1.11264, 54.6099 ] } },
{ "type": "Feature", "properties": { "nlc_id": 4187, "tlc_id": "BNF", "name": "Briton Ferry" }, "geometry": { "type": "Point", "coordinates": [ -3.8193, 51.63785 ] } },
{ "type": "Feature", "properties": { "nlc_id": 5081, "tlc_id": "BRX", "name": "Brixton" }, "geometry": { "type": "Point", "coordinates": [ -0.11416, 51.46324 ] } },
{ "type": "Feature", "properties": { "nlc_id": 2240, "tlc_id": "BGE", "name": "Broad Green" }, "geometry": { "type": "Point", "coordinates": [ -2.89351, 53.40649 ] } },
{ "type": "Feature", "properties": { "nlc_id": 2892, "tlc_id": "BDB", "name": "Broadbottom" }, "geometry": { "type": "Point", "coordinates": [ -2.01653, 53.44096 ] } },
{ "type": "Feature", "properties": { "nlc_id": 5006, "tlc_id": "BSR", "name": "Broadstairs" }, "geometry": { "type": "Point", "coordinates": [ 1.43361, 51.36061 ] } },
{ "type": "Feature", "properties": { "nlc_id": 5886, "tlc_id": "BCU", "name": "Brockenhurst" }, "geometry": { "type": "Point", "coordinates": [ -1.57354, 50.81677 ] } },
{ "type": "Feature", "properties": { "nlc_id": 8429, "tlc_id": "BHS", "name": "Brockholes" }, "geometry": { "type": "Point", "coordinates": [ -1.76969, 53.59696 ] } },
{ "type": "Feature", "properties": { "nlc_id": 5404, "tlc_id": "BCY", "name": "Brockley" }, "geometry": { "type": "Point", "coordinates": [ -0.03752, 51.46459 ] } },
{ "type": "Feature", "properties": { "nlc_id": 2190, "tlc_id": "BOM", "name": "Bromborough" }, "geometry": { "type": "Point", "coordinates": [ -2.98692, 53.32183 ] } },
{ "type": "Feature", "properties": { "nlc_id": 2191, "tlc_id": "BMR", "name": "Bromborough Rake" }, "geometry": { "type": "Point", "coordinates": [ -2.9895, 53.32989 ] } },
{ "type": "Feature", "properties": { "nlc_id": 2697, "tlc_id": "BMC", "name": "Bromley Cross" }, "geometry": { "type": "Point", "coordinates": [ -2.41091, 53.61403 ] } },
{ "type": "Feature", "properties": { "nlc_id": 5096, "tlc_id": "BMN", "name": "Bromley North" }, "geometry": { "type": "Point", "coordinates": [ 0.01701, 51.40827 ] } },
{ "type": "Feature", "properties": { "nlc_id": 5064, "tlc_id": "BMS", "name": "Bromley South" }, "geometry": { "type": "Point", "coordinates": [ 0.01737, 51.39992 ] } },
{ "type": "Feature", "properties": { "nlc_id": 4715, "tlc_id": "BMV", "name": "Bromsgrove" }, "geometry": { "type": "Point", "coordinates": [ -2.04736, 52.32225 ] } },
{ "type": "Feature", "properties": { "nlc_id": 1437, "tlc_id": "BSY", "name": "Brondesbury" }, "geometry": { "type": "Point", "coordinates": [ -0.20229, 51.54511 ] } },
{ "type": "Feature", "properties": { "nlc_id": 1438, "tlc_id": "BSP", "name": "Brondesbury Park" }, "geometry": { "type": "Point", "coordinates": [ -0.21011, 51.54064 ] } },
{ "type": "Feature", "properties": { "nlc_id": 6074, "tlc_id": "BPK", "name": "Brookman's Park" }, "geometry": { "type": "Point", "coordinates": [ -0.20453, 51.72101 ] } },
{ "type": "Feature", "properties": { "nlc_id": 5687, "tlc_id": "BKO", "name": "Brookwood" }, "geometry": { "type": "Point", "coordinates": [ -0.63574, 51.3037 ] } },
{ "type": "Feature", "properties": { "nlc_id": 4175, "tlc_id": "BME", "name": "Broome" }, "geometry": { "type": "Point", "coordinates": [ -2.88524, 52.42274 ] } },
{ "type": "Feature", "properties": { "nlc_id": 8050, "tlc_id": "BMF", "name": "Broomfleet" }, "geometry": { "type": "Point", "coordinates": [ -0.6718, 53.7402 ] } },
{ "type": "Feature", "properties": { "nlc_id": 8618, "tlc_id": "BRA", "name": "Brora" }, "geometry": { "type": "Point", "coordinates": [ -3.8523, 58.01304 ] } },
{ "type": "Feature", "properties": { "nlc_id": 8051, "tlc_id": "BUH", "name": "Brough" }, "geometry": { "type": "Point", "coordinates": [ -0.5787, 53.72695 ] } },
{ "type": "Feature", "properties": { "nlc_id": 9023, "tlc_id": "BYF", "name": "Broughty Ferry" }, "geometry": { "type": "Point", "coordinates": [ -2.87316, 56.46721 ] } },
{ "type": "Feature", "properties": { "nlc_id": 6812, "tlc_id": "BXB", "name": "Broxbourne" }, "geometry": { "type": "Point", "coordinates": [ -0.01106, 51.74686 ] } },
{ "type": "Feature", "properties": { "nlc_id": 6958, "tlc_id": "BCV", "name": "Bruce Grove" }, "geometry": { "type": "Point", "coordinates": [ -0.06985, 51.59391 ] } },
{ "type": "Feature", "properties": { "nlc_id": 7289, "tlc_id": "BDA", "name": "Brundall" }, "geometry": { "type": "Point", "coordinates": [ 1.43936, 52.61945 ] } },
{ "type": "Feature", "properties": { "nlc_id": 7006, "tlc_id": "BGA", "name": "Brundall Gardens" }, "geometry": { "type": "Point", "coordinates": [ 1.41847, 52.62341 ] } },
{ "type": "Feature", "properties": { "nlc_id": 8807, "tlc_id": "BSU", "name": "Brunstane" }, "geometry": { "type": "Point", "coordinates": [ -3.101, 55.94255 ] } },
{ "type": "Feature", "properties": { "nlc_id": 3623, "tlc_id": "BRW", "name": "Brunswick" }, "geometry": { "type": "Point", "coordinates": [ -2.9761, 53.38323 ] } },
{ "type": "Feature", "properties": { "nlc_id": 5702, "tlc_id": "BRU", "name": "Bruton" }, "geometry": { "type": "Point", "coordinates": [ -2.4471, 51.11158 ] } },
{ "type": "Feature", "properties": { "nlc_id": 2222, "tlc_id": "BYN", "name": "Bryn" }, "geometry": { "type": "Point", "coordinates": [ -2.64723, 53.49986 ] } },
{ "type": "Feature", "properties": { "nlc_id": 7290, "tlc_id": "BUC", "name": "Buckenham" }, "geometry": { "type": "Point", "coordinates": [ 1.47038, 52.5977 ] } },
{ "type": "Feature", "properties": { "nlc_id": 2422, "tlc_id": "BCK", "name": "Buckley" }, "geometry": { "type": "Point", "coordinates": [ -3.05595, 53.16302 ] } },
{ "type": "Feature", "properties": { "nlc_id": 4182, "tlc_id": "BUK", "name": "Bucknell" }, "geometry": { "type": "Point", "coordinates": [ -2.94741, 52.35735 ] } },
{ "type": "Feature", "properties": { "nlc_id": 7501, "tlc_id": "BSV", "name": "Buckshaw Parkway" }, "geometry": { "type": "Point", "coordinates": [ -2.66085, 53.67334 ] } },
{ "type": "Feature", "properties": { "nlc_id": 3502, "tlc_id": "BGL", "name": "Bugle" }, "geometry": { "type": "Point", "coordinates": [ -4.79218, 50.40028 ] } },
{ "type": "Feature", "properties": { "nlc_id": 4317, "tlc_id": "BHR", "name": "Builth Road" }, "geometry": { "type": "Point", "coordinates": [ -3.42707, 52.16929 ] } },
{ "type": "Feature", "properties": { "nlc_id": 1865, "tlc_id": "BLW", "name": "Bulwell" }, "geometry": { "type": "Point", "coordinates": [ -1.19622, 52.99967 ] } },
{ "type": "Feature", "properties": { "nlc_id": 7085, "tlc_id": "BUE", "name": "Bures" }, "geometry": { "type": "Point", "coordinates": [ 0.76918, 51.97111 ] } },
{ "type": "Feature", "properties": { "nlc_id": 5483, "tlc_id": "BUG", "name": "Burgess Hill" }, "geometry": { "type": "Point", "coordinates": [ -0.1274, 50.95359 ] } },
{ "type": "Feature", "properties": { "nlc_id": 8500, "tlc_id": "BUY", "name": "Burley Park" }, "geometry": { "type": "Point", "coordinates": [ -1.57776, 53.81203 ] } },
{ "type": "Feature", "properties": { "nlc_id": 8565, "tlc_id": "BUW", "name": "Burley-In-Wharfedale" }, "geometry": { "type": "Point", "coordinates": [ -1.75337, 53.90815 ] } },
{ "type": "Feature", "properties": { "nlc_id": 2945, "tlc_id": "BNA", "name": "Burnage" }, "geometry": { "type": "Point", "coordinates": [ -2.21569, 53.42116 ] } },
{ "type": "Feature", "properties": { "nlc_id": 1975, "tlc_id": "BUD", "name": "Burneside" }, "geometry": { "type": "Point", "coordinates": [ -2.76669, 54.35499 ] } },
{ "type": "Feature", "properties": { "nlc_id": 3176, "tlc_id": "BNM", "name": "Burnham" }, "geometry": { "type": "Point", "coordinates": [ -0.64636, 51.52345 ] } },
{ "type": "Feature", "properties": { "nlc_id": 6873, "tlc_id": "BUU", "name": "Burnham-On-Crouch" }, "geometry": { "type": "Point", "coordinates": [ 0.81407, 51.6336 ] } },
{ "type": "Feature", "properties": { "nlc_id": 2743, "tlc_id": "BUB", "name": "Burnley Barracks" }, "geometry": { "type": "Point", "coordinates": [ -2.25809, 53.79087 ] } },
{ "type": "Feature", "properties": { "nlc_id": 2550, "tlc_id": "BNC", "name": "Burnley Central" }, "geometry": { "type": "Point", "coordinates": [ -2.24498, 53.79351 ] } },
{ "type": "Feature", "properties": { "nlc_id": 2549, "tlc_id": "BYM", "name": "Burnley Manchester Road" }, "geometry": { "type": "Point", "coordinates": [ -2.24888, 53.78496 ] } },
{ "type": "Feature", "properties": { "nlc_id": 9767, "tlc_id": "BUI", "name": "Burnside" }, "geometry": { "type": "Point", "coordinates": [ -4.20243, 55.81697 ] } },
{ "type": "Feature", "properties": { "nlc_id": 9107, "tlc_id": "BTS", "name": "Burntisland" }, "geometry": { "type": "Point", "coordinates": [ -3.23321, 56.05713 ] } },
{ "type": "Feature", "properties": { "nlc_id": 2279, "tlc_id": "BCB", "name": "Burscough Bridge" }, "geometry": { "type": "Point", "coordinates": [ -2.8409, 53.60525 ] } },
{ "type": "Feature", "properties": { "nlc_id": 2280, "tlc_id": "BCJ", "name": "Burscough Junction" }, "geometry": { "type": "Point", "coordinates": [ -2.84063, 53.59751 ] } },
{ "type": "Feature", "properties": { "nlc_id": 5927, "tlc_id": "BUO", "name": "Bursledon" }, "geometry": { "type": "Point", "coordinates": [ -1.30504, 50.88362 ] } },
{ "type": "Feature", "properties": { "nlc_id": 6200, "tlc_id": "BUJ", "name": "Burton Joyce" }, "geometry": { "type": "Point", "coordinates": [ -1.04087, 52.98342 ] } },
{ "type": "Feature", "properties": { "nlc_id": 1658, "tlc_id": "BUT", "name": "Burton-On-Trent" }, "geometry": { "type": "Point", "coordinates": [ -1.64246, 52.80579 ] } },
{ "type": "Feature", "properties": { "nlc_id": 7008, "tlc_id": "BSE", "name": "Bury St.Edmunds" }, "geometry": { "type": "Point", "coordinates": [ 0.71335, 52.25372 ] } },
{ "type": "Feature", "properties": { "nlc_id": 9791, "tlc_id": "BUS", "name": "Busby" }, "geometry": { "type": "Point", "coordinates": [ -4.26224, 55.78038 ] } },
{ "type": "Feature", "properties": { "nlc_id": 6913, "tlc_id": "BHK", "name": "Bush Hill Park" }, "geometry": { "type": "Point", "coordinates": [ -0.0692, 51.64147 ] } },
{ "type": "Feature", "properties": { "nlc_id": 1395, "tlc_id": "BSH", "name": "Bushey" }, "geometry": { "type": "Point", "coordinates": [ -0.38531, 51.6457 ] } },
{ "type": "Feature", "properties": { "nlc_id": 1179, "tlc_id": "BUL", "name": "Butlers Lane" }, "geometry": { "type": "Point", "coordinates": [ -1.83803, 52.59244 ] } },
{ "type": "Feature", "properties": { "nlc_id": 5324, "tlc_id": "BXD", "name": "Buxted" }, "geometry": { "type": "Point", "coordinates": [ 0.13146, 50.98995 ] } },
{ "type": "Feature", "properties": { "nlc_id": 2946, "tlc_id": "BUX", "name": "Buxton" }, "geometry": { "type": "Point", "coordinates": [ -1.91287, 53.26071 ] } },
{ "type": "Feature", "properties": { "nlc_id": 5689, "tlc_id": "BFN", "name": "Byfleet & New Haw" }, "geometry": { "type": "Point", "coordinates": [ -0.48138, 51.34974 ] } },
{ "type": "Feature", "properties": { "nlc_id": 4124, "tlc_id": "BYE", "name": "Bynea" }, "geometry": { "type": "Point", "coordinates": [ -4.09894, 51.67199 ] } },
{ "type": "Feature", "properties": { "nlc_id": 3811, "tlc_id": "CAD", "name": "Cadoxton" }, "geometry": { "type": "Point", "coordinates": [ -3.24894, 51.41223 ] } },
{ "type": "Feature", "properties": { "nlc_id": 2536, "tlc_id": "CGW", "name": "Caergwrle" }, "geometry": { "type": "Point", "coordinates": [ -3.03294, 53.10785 ] } },
{ "type": "Feature", "properties": { "nlc_id": 3812, "tlc_id": "CPH", "name": "Caerphilly" }, "geometry": { "type": "Point", "coordinates": [ -3.21852, 51.57153 ] } },
{ "type": "Feature", "properties": { "nlc_id": 4412, "tlc_id": "CWS", "name": "Caersws" }, "geometry": { "type": "Point", "coordinates": [ -3.43254, 52.5161 ] } },
{ "type": "Feature", "properties": { "nlc_id": 992, "tlc_id": "CAC", "name": "Caldercruix" }, "geometry": { "type": "Point", "coordinates": [ -3.88774, 55.88799 ] } },
{ "type": "Feature", "properties": { "nlc_id": 3680, "tlc_id": "CDT", "name": "Caldicot" }, "geometry": { "type": "Point", "coordinates": [ -2.7606, 51.58474 ] } },
{ "type": "Feature", "properties": { "nlc_id": 1439, "tlc_id": "CIR", "name": "Caledonian Road & Barnsbury" }, "geometry": { "type": "Point", "coordinates": [ -0.11671, 51.54299 ] } },
{ "type": "Feature", "properties": { "nlc_id": 3562, "tlc_id": "CSK", "name": "Calstock" }, "geometry": { "type": "Point", "coordinates": [ -4.20905, 50.49773 ] } },
{ "type": "Feature", "properties": { "nlc_id": 3238, "tlc_id": "CDU", "name": "Cam & Dursley" }, "geometry": { "type": "Point", "coordinates": [ -2.35911, 51.71757 ] } },
{ "type": "Feature", "properties": { "nlc_id": 5682, "tlc_id": "CAM", "name": "Camberley" }, "geometry": { "type": "Point", "coordinates": [ -0.74427, 51.33627 ] } },
{ "type": "Feature", "properties": { "nlc_id": 3504, "tlc_id": "CBN", "name": "Camborne" }, "geometry": { "type": "Point", "coordinates": [ -5.2975, 50.21036 ] } },
{ "type": "Feature", "properties": { "nlc_id": 7022, "tlc_id": "CBG", "name": "Cambridge" }, "geometry": { "type": "Point", "coordinates": [ 0.13749, 52.19403 ] } },
{ "type": "Feature", "properties": { "nlc_id": 6962, "tlc_id": "CBH", "name": "Cambridge Heath" }, "geometry": { "type": "Point", "coordinates": [ -0.05726, 51.53192 ] } },
{ "type": "Feature", "properties": { "nlc_id": 9768, "tlc_id": "CBL", "name": "Cambuslang" }, "geometry": { "type": "Point", "coordinates": [ -4.17305, 55.81965 ] } },
{ "type": "Feature", "properties": { "nlc_id": 1440, "tlc_id": "CMD", "name": "Camden Road" }, "geometry": { "type": "Point", "coordinates": [ -0.13868, 51.54174 ] } },
{ "type": "Feature", "properties": { "nlc_id": 9878, "tlc_id": "CMO", "name": "Camelon" }, "geometry": { "type": "Point", "coordinates": [ -3.81763, 56.00614 ] } },
{ "type": "Feature", "properties": { "nlc_id": 1659, "tlc_id": "ZCW", "name": "Canada Water" }, "geometry": { "type": "Point", "coordinates": [ -0.0497, 51.49793 ] } },
{ "type": "Feature", "properties": { "nlc_id": 1129, "tlc_id": "CNL", "name": "Canley" }, "geometry": { "type": "Point", "coordinates": [ -1.54758, 52.39921 ] } },
{ "type": "Feature", "properties": { "nlc_id": 1016, "tlc_id": "CAO", "name": "Cannock" }, "geometry": { "type": "Point", "coordinates": [ -2.02216, 52.68613 ] } },
{ "type": "Feature", "properties": { "nlc_id": 5142, "tlc_id": "CST", "name": "Cannon Street" }, "geometry": { "type": "Point", "coordinates": [ -0.09027, 51.51133 ] } },
{ "type": "Feature", "properties": { "nlc_id": 1441, "tlc_id": "CNN", "name": "Canonbury" }, "geometry": { "type": "Point", "coordinates": [ -0.09217, 51.54868 ] } },
{ "type": "Feature", "properties": { "nlc_id": 5164, "tlc_id": "CBE", "name": "Canterbury East" }, "geometry": { "type": "Point", "coordinates": [ 1.07601, 51.2742 ] } },
{ "type": "Feature", "properties": { "nlc_id": 5007, "tlc_id": "CBW", "name": "Canterbury West" }, "geometry": { "type": "Point", "coordinates": [ 1.07534, 51.28421 ] } },
{ "type": "Feature", "properties": { "nlc_id": 7292, "tlc_id": "CNY", "name": "Cantley" }, "geometry": { "type": "Point", "coordinates": [ 1.51347, 52.57871 ] } },
{ "type": "Feature", "properties": { "nlc_id": 2186, "tlc_id": "CPU", "name": "Capenhurst" }, "geometry": { "type": "Point", "coordinates": [ -2.94231, 53.26016 ] } },
{ "type": "Feature", "properties": { "nlc_id": 3542, "tlc_id": "CBB", "name": "Carbis Bay" }, "geometry": { "type": "Point", "coordinates": [ -5.46335, 50.19698 ] } },
{ "type": "Feature", "properties": { "nlc_id": 9112, "tlc_id": "CDD", "name": "Cardenden" }, "geometry": { "type": "Point", "coordinates": [ -3.26166, 56.1413 ] } },
{ "type": "Feature", "properties": { "nlc_id": 3815, "tlc_id": "CDB", "name": "Cardiff Bay" }, "geometry": { "type": "Point", "coordinates": [ -3.16644, 51.46706 ] } },
{ "type": "Feature", "properties": { "nlc_id": 3899, "tlc_id": "CDF", "name": "Cardiff Central" }, "geometry": { "type": "Point", "coordinates": [ -3.17934, 51.47598 ] } },
{ "type": "Feature", "properties": { "nlc_id": 3900, "tlc_id": "CDQ", "name": "Cardiff Queen Street" }, "geometry": { "type": "Point", "coordinates": [ -3.17022, 51.48191 ] } },
{ "type": "Feature", "properties": { "nlc_id": 9624, "tlc_id": "CDO", "name": "Cardonald" }, "geometry": { "type": "Point", "coordinates": [ -4.34073, 55.85261 ] } },
{ "type": "Feature", "properties": { "nlc_id": 9969, "tlc_id": "CDR", "name": "Cardross" }, "geometry": { "type": "Point", "coordinates": [ -4.65312, 55.96043 ] } },
{ "type": "Feature", "properties": { "nlc_id": 9877, "tlc_id": "CRF", "name": "Carfin" }, "geometry": { "type": "Point", "coordinates": [ -3.95629, 55.80738 ] } },
{ "type": "Feature", "properties": { "nlc_id": 1964, "tlc_id": "CAK", "name": "Cark & Cartmel" }, "geometry": { "type": "Point", "coordinates": [ -2.97409, 54.17796 ] } },
{ "type": "Feature", "properties": { "nlc_id": 2118, "tlc_id": "CAR", "name": "Carlisle" }, "geometry": { "type": "Point", "coordinates": [ -2.93321, 54.89067 ] } },
{ "type": "Feature", "properties": { "nlc_id": 6201, "tlc_id": "CTO", "name": "Carlton" }, "geometry": { "type": "Point", "coordinates": [ -1.07864, 52.96506 ] } },
{ "type": "Feature", "properties": { "nlc_id": 9702, "tlc_id": "CLU", "name": "Carluke" }, "geometry": { "type": "Point", "coordinates": [ -3.84896, 55.73131 ] } },
{ "type": "Feature", "properties": { "nlc_id": 4068, "tlc_id": "CMN", "name": "Carmarthen" }, "geometry": { "type": "Point", "coordinates": [ -4.30602, 51.85331 ] } },
{ "type": "Feature", "properties": { "nlc_id": 9769, "tlc_id": "CML", "name": "Carmyle" }, "geometry": { "type": "Point", "coordinates": [ -4.15822, 55.83438 ] } },
{ "type": "Feature", "properties": { "nlc_id": 2640, "tlc_id": "CNF", "name": "Carnforth" }, "geometry": { "type": "Point", "coordinates": [ -2.77125, 54.12968 ] } },
{ "type": "Feature", "properties": { "nlc_id": 9028, "tlc_id": "CAN", "name": "Carnoustie" }, "geometry": { "type": "Point", "coordinates": [ -2.7066, 56.50062 ] } },
{ "type": "Feature", "properties": { "nlc_id": 9897, "tlc_id": "CAY", "name": "Carntyne" }, "geometry": { "type": "Point", "coordinates": [ -4.17861, 55.85492 ] } },
{ "type": "Feature", "properties": { "nlc_id": 1442, "tlc_id": "CPK", "name": "Carpenders Park" }, "geometry": { "type": "Point", "coordinates": [ -0.38592, 51.6283 ] } },
{ "type": "Feature", "properties": { "nlc_id": 8621, "tlc_id": "CAG", "name": "Carrbridge" }, "geometry": { "type": "Point", "coordinates": [ -3.82822, 57.27957 ] } },
{ "type": "Feature", "properties": { "nlc_id": 5405, "tlc_id": "CSH", "name": "Carshalton" }, "geometry": { "type": "Point", "coordinates": [ -0.16635, 51.3684 ] } },
{ "type": "Feature", "properties": { "nlc_id": 5406, "tlc_id": "CSB", "name": "Carshalton Beeches" }, "geometry": { "type": "Point", "coordinates": [ -0.16978, 51.35735 ] } },
{ "type": "Feature", "properties": { "nlc_id": 9704, "tlc_id": "CRS", "name": "Carstairs" }, "geometry": { "type": "Point", "coordinates": [ -3.6685, 55.69109 ] } },
{ "type": "Feature", "properties": { "nlc_id": 9680, "tlc_id": "CDY", "name": "Cartsdyke" }, "geometry": { "type": "Point", "coordinates": [ -4.73164, 55.94226 ] } },
{ "type": "Feature", "properties": { "nlc_id": 3098, "tlc_id": "CBP", "name": "Castle Bar Park" }, "geometry": { "type": "Point", "coordinates": [ -0.33153, 51.52288 ] } },
{ "type": "Feature", "properties": { "nlc_id": 5703, "tlc_id": "CLC", "name": "Castle Cary" }, "geometry": { "type": "Point", "coordinates": [ -2.52282, 51.09976 ] } },
{ "type": "Feature", "properties": { "nlc_id": 8359, "tlc_id": "CFD", "name": "Castleford" }, "geometry": { "type": "Point", "coordinates": [ -1.35464, 53.72407 ] } },
{ "type": "Feature", "properties": { "nlc_id": 2919, "tlc_id": "CAS", "name": "Castleton" }, "geometry": { "type": "Point", "coordinates": [ -2.17824, 53.59184 ] } },
{ "type": "Feature", "properties": { "nlc_id": 7914, "tlc_id": "CSM", "name": "Castleton Moor" }, "geometry": { "type": "Point", "coordinates": [ -0.94663, 54.46715 ] } },
{ "type": "Feature", "properties": { "nlc_id": 5351, "tlc_id": "CAT", "name": "Caterham" }, "geometry": { "type": "Point", "coordinates": [ -0.07829, 51.28208 ] } },
{ "type": "Feature", "properties": { "nlc_id": 5077, "tlc_id": "CTF", "name": "Catford" }, "geometry": { "type": "Point", "coordinates": [ -0.0263, 51.44435 ] } },
{ "type": "Feature", "properties": { "nlc_id": 5047, "tlc_id": "CFB", "name": "Catford Bridge" }, "geometry": { "type": "Point", "coordinates": [ -0.02477, 51.44468 ] } },
{ "type": "Feature", "properties": { "nlc_id": 3820, "tlc_id": "CYS", "name": "Cathays" }, "geometry": { "type": "Point", "coordinates": [ -3.17872, 51.48885 ] } },
{ "type": "Feature", "properties": { "nlc_id": 9795, "tlc_id": "CCT", "name": "Cathcart" }, "geometry": { "type": "Point", "coordinates": [ -4.26058, 55.81771 ] } },
{ "type": "Feature", "properties": { "nlc_id": 8232, "tlc_id": "CTL", "name": "Cattal" }, "geometry": { "type": "Point", "coordinates": [ -1.32052, 53.99744 ] } },
{ "type": "Feature", "properties": { "nlc_id": 3568, "tlc_id": "CAU", "name": "Causeland" }, "geometry": { "type": "Point", "coordinates": [ -4.46652, 50.40562 ] } },
{ "type": "Feature", "properties": { "nlc_id": 2425, "tlc_id": "CYB", "name": "Cefn-Y-Bedd" }, "geometry": { "type": "Point", "coordinates": [ -3.03108, 53.09878 ] } },
{ "type": "Feature", "properties": { "nlc_id": 6874, "tlc_id": "CTH", "name": "Chadwell Heath" }, "geometry": { "type": "Point", "coordinates": [ 0.12898, 51.56798 ] } },
{ "type": "Feature", "properties": { "nlc_id": 7447, "tlc_id": "CFH", "name": "Chafford Hundred" }, "geometry": { "type": "Point", "coordinates": [ 0.28747, 51.4855 ] } },
{ "type": "Feature", "properties": { "nlc_id": 539, "tlc_id": "CFO", "name": "Chalfont & Latimer" }, "geometry": { "type": "Point", "coordinates": [ -0.56051, 51.66806 ] } },
{ "type": "Feature", "properties": { "nlc_id": 7469, "tlc_id": "CHW", "name": "Chalkwell" }, "geometry": { "type": "Point", "coordinates": [ 0.67063, 51.53866 ] } },
{ "type": "Feature", "properties": { "nlc_id": 5836, "tlc_id": "CFR", "name": "Chandlers Ford" }, "geometry": { "type": "Point", "coordinates": [ -1.38518, 50.98362 ] } },
{ "type": "Feature", "properties": { "nlc_id": 2762, "tlc_id": "CEF", "name": "Chapel-En-Le-Frith" }, "geometry": { "type": "Point", "coordinates": [ -1.91877, 53.31222 ] } },
{ "type": "Feature", "properties": { "nlc_id": 5820, "tlc_id": "CPN", "name": "Chapelton" }, "geometry": { "type": "Point", "coordinates": [ -4.02478, 51.01648 ] } },
{ "type": "Feature", "properties": { "nlc_id": 6664, "tlc_id": "CLN", "name": "Chapeltown" }, "geometry": { "type": "Point", "coordinates": [ -1.46627, 53.46232 ] } },
{ "type": "Feature", "properties": { "nlc_id": 7051, "tlc_id": "CWC", "name": "Chappel & Wakes Colne" }, "geometry": { "type": "Point", "coordinates": [ 0.75854, 51.92586 ] } },
{ "type": "Feature", "properties": { "nlc_id": 5097, "tlc_id": "CHG", "name": "Charing" }, "geometry": { "type": "Point", "coordinates": [ 0.79037, 51.20804 ] } },
{ "type": "Feature", "properties": { "nlc_id": 5143, "tlc_id": "CHX", "name": "Charing Cross" }, "geometry": { "type": "Point", "coordinates": [ -0.12478, 51.50797 ] } },
{ "type": "Feature", "properties": { "nlc_id": 9911, "tlc_id": "CHC", "name": "Charing Cross (Glasgow)" }, "geometry": { "type": "Point", "coordinates": [ -4.26986, 55.86473 ] } },
{ "type": "Feature", "properties": { "nlc_id": 3004, "tlc_id": "CBY", "name": "Charlbury" }, "geometry": { "type": "Point", "coordinates": [ -1.4897, 51.87238 ] } },
{ "type": "Feature", "properties": { "nlc_id": 5144, "tlc_id": "CTN", "name": "Charlton" }, "geometry": { "type": "Point", "coordinates": [ 0.03128, 51.48676 ] } },
{ "type": "Feature", "properties": { "nlc_id": 5008, "tlc_id": "CRT", "name": "Chartham" }, "geometry": { "type": "Point", "coordinates": [ 1.01808, 51.2572 ] } },
{ "type": "Feature", "properties": { "nlc_id": 2947, "tlc_id": "CSR", "name": "Chassen Road" }, "geometry": { "type": "Point", "coordinates": [ -2.36825, 53.44615 ] } },
{ "type": "Feature", "properties": { "nlc_id": 9707, "tlc_id": "CTE", "name": "Chatelherault" }, "geometry": { "type": "Point", "coordinates": [ -4.00471, 55.76526 ] } },
{ "type": "Feature", "properties": { "nlc_id": 5199, "tlc_id": "CTM", "name": "Chatham" }, "geometry": { "type": "Point", "coordinates": [ 0.52118, 51.38032 ] } },
{ "type": "Feature", "properties": { "nlc_id": 7792, "tlc_id": "CHT", "name": "Chathill" }, "geometry": { "type": "Point", "coordinates": [ -1.70636, 55.53676 ] } },
{ "type": "Feature", "properties": { "nlc_id": 2870, "tlc_id": "CHU", "name": "Cheadle Hulme" }, "geometry": { "type": "Point", "coordinates": [ -2.18831, 53.37592 ] } },
{ "type": "Feature", "properties": { "nlc_id": 5352, "tlc_id": "CHE", "name": "Cheam" }, "geometry": { "type": "Point", "coordinates": [ -0.21415, 51.35542 ] } },
{ "type": "Feature", "properties": { "nlc_id": 1372, "tlc_id": "CED", "name": "Cheddington" }, "geometry": { "type": "Point", "coordinates": [ -0.66214, 51.85787 ] } },
{ "type": "Feature", "properties": { "nlc_id": 2764, "tlc_id": "CEL", "name": "Chelford" }, "geometry": { "type": "Point", "coordinates": [ -2.28059, 53.2703 ] } },
{ "type": "Feature", "properties": { "nlc_id": 6836, "tlc_id": "CHM", "name": "Chelmsford" }, "geometry": { "type": "Point", "coordinates": [ 0.4686, 51.73632 ] } },
{ "type": "Feature", "properties": { "nlc_id": 5098, "tlc_id": "CLD", "name": "Chelsfield" }, "geometry": { "type": "Point", "coordinates": [ 0.10909, 51.3562 ] } },
{ "type": "Feature", "properties": { "nlc_id": 4731, "tlc_id": "CNM", "name": "Cheltenham Spa" }, "geometry": { "type": "Point", "coordinates": [ -2.09964, 51.89735 ] } },
{ "type": "Feature", "properties": { "nlc_id": 3774, "tlc_id": "CPW", "name": "Chepstow" }, "geometry": { "type": "Point", "coordinates": [ -2.67193, 51.64013 ] } },
{ "type": "Feature", "properties": { "nlc_id": 2573, "tlc_id": "CYT", "name": "Cherry Tree" }, "geometry": { "type": "Point", "coordinates": [ -2.51839, 53.73287 ] } },
{ "type": "Feature", "properties": { "nlc_id": 5553, "tlc_id": "CHY", "name": "Chertsey" }, "geometry": { "type": "Point", "coordinates": [ -0.50931, 51.38701 ] } },
{ "type": "Feature", "properties": { "nlc_id": 6814, "tlc_id": "CHN", "name": "Cheshunt" }, "geometry": { "type": "Point", "coordinates": [ -0.02394, 51.70282 ] } },
{ "type": "Feature", "properties": { "nlc_id": 5582, "tlc_id": "CSN", "name": "Chessington North" }, "geometry": { "type": "Point", "coordinates": [ -0.30068, 51.36398 ] } },
{ "type": "Feature", "properties": { "nlc_id": 5554, "tlc_id": "CSS", "name": "Chessington South" }, "geometry": { "type": "Point", "coordinates": [ -0.30814, 51.35649 ] } },
{ "type": "Feature", "properties": { "nlc_id": 2412, "tlc_id": "CTR", "name": "Chester" }, "geometry": { "type": "Point", "coordinates": [ -2.87962, 53.19668 ] } },
{ "type": "Feature", "properties": { "nlc_id": 1130, "tlc_id": "CRD", "name": "Chester Road" }, "geometry": { "type": "Point", "coordinates": [ -1.83249, 52.53562 ] } },
{ "type": "Feature", "properties": { "nlc_id": 6615, "tlc_id": "CHD", "name": "Chesterfield" }, "geometry": { "type": "Point", "coordinates": [ -1.42011, 53.2382 ] } },
{ "type": "Feature", "properties": { "nlc_id": 7736, "tlc_id": "CLS", "name": "Chester-Le-Street" }, "geometry": { "type": "Point", "coordinates": [ -1.578, 54.85461 ] } },
{ "type": "Feature", "properties": { "nlc_id": 5200, "tlc_id": "CSW", "name": "Chestfield & Swalecliffe" }, "geometry": { "type": "Point", "coordinates": [ 1.06697, 51.36018 ] } },
{ "type": "Feature", "properties": { "nlc_id": 5840, "tlc_id": "CNO", "name": "Chetnole" }, "geometry": { "type": "Point", "coordinates": [ -2.57296, 50.8663 ] } },
{ "type": "Feature", "properties": { "nlc_id": 5255, "tlc_id": "CCH", "name": "Chichester" }, "geometry": { "type": "Point", "coordinates": [ -0.78175, 50.83199 ] } },
{ "type": "Feature", "properties": { "nlc_id": 5009, "tlc_id": "CIL", "name": "Chilham" }, "geometry": { "type": "Point", "coordinates": [ 0.97593, 51.24455 ] } },
{ "type": "Feature", "properties": { "nlc_id": 5296, "tlc_id": "CHL", "name": "Chilworth" }, "geometry": { "type": "Point", "coordinates": [ -0.52481, 51.21515 ] } },
{ "type": "Feature", "properties": { "nlc_id": 6914, "tlc_id": "CHI", "name": "Chingford" }, "geometry": { "type": "Point", "coordinates": [ 0.00992, 51.63303 ] } },
{ "type": "Feature", "properties": { "nlc_id": 2823, "tlc_id": "CLY", "name": "Chinley" }, "geometry": { "type": "Point", "coordinates": [ -1.94395, 53.34028 ] } },
{ "type": "Feature", "properties": { "nlc_id": 3267, "tlc_id": "CPM", "name": "Chippenham" }, "geometry": { "type": "Point", "coordinates": [ -2.11541, 51.46244 ] } },
{ "type": "Feature", "properties": { "nlc_id": 5353, "tlc_id": "CHP", "name": "Chipstead" }, "geometry": { "type": "Point", "coordinates": [ -0.16949, 51.30922 ] } },
{ "type": "Feature", "properties": { "nlc_id": 4449, "tlc_id": "CRK", "name": "Chirk" }, "geometry": { "type": "Point", "coordinates": [ -3.06567, 52.93307 ] } },
{ "type": "Feature", "properties": { "nlc_id": 5099, "tlc_id": "CIT", "name": "Chislehurst" }, "geometry": { "type": "Point", "coordinates": [ 0.05744, 51.4055 ] } },
{ "type": "Feature", "properties": { "nlc_id": 5583, "tlc_id": "CHK", "name": "Chiswick" }, "geometry": { "type": "Point", "coordinates": [ -0.26782, 51.48108 ] } },
{ "type": "Feature", "properties": { "nlc_id": 3031, "tlc_id": "CHO", "name": "Cholsey" }, "geometry": { "type": "Point", "coordinates": [ -1.15802, 51.57015 ] } },
{ "type": "Feature", "properties": { "nlc_id": 2745, "tlc_id": "CRL", "name": "Chorley" }, "geometry": { "type": "Point", "coordinates": [ -2.62686, 53.65253 ] } },
{ "type": "Feature", "properties": { "nlc_id": 546, "tlc_id": "CLW", "name": "Chorleywood" }, "geometry": { "type": "Point", "coordinates": [ -0.51831, 51.6542 ] } },
{ "type": "Feature", "properties": { "nlc_id": 5879, "tlc_id": "CHR", "name": "Christchurch" }, "geometry": { "type": "Point", "coordinates": [ -1.78456, 50.73815 ] } },
{ "type": "Feature", "properties": { "nlc_id": 5319, "tlc_id": "CHH", "name": "Christ's Hospital" }, "geometry": { "type": "Point", "coordinates": [ -0.36354, 51.05062 ] } },
{ "type": "Feature", "properties": { "nlc_id": 2556, "tlc_id": "CTW", "name": "Church & Oswaldtwistle" }, "geometry": { "type": "Point", "coordinates": [ -2.39122, 53.75052 ] } },
{ "type": "Feature", "properties": { "nlc_id": 8233, "tlc_id": "CHF", "name": "Church Fenton" }, "geometry": { "type": "Point", "coordinates": [ -1.22758, 53.8266 ] } },
{ "type": "Feature", "properties": { "nlc_id": 4365, "tlc_id": "CTT", "name": "Church Stretton" }, "geometry": { "type": "Point", "coordinates": [ -2.80372, 52.53739 ] } },
{ "type": "Feature", "properties": { "nlc_id": 3785, "tlc_id": "CIM", "name": "Cilmeri" }, "geometry": { "type": "Point", "coordinates": [ -3.45658, 52.15049 ] } },
{ "type": "Feature", "properties": { "nlc_id": 5121, "tlc_id": "CTK", "name": "City Thameslink" }, "geometry": { "type": "Point", "coordinates": [ -0.10357, 51.51388 ] } },
{ "type": "Feature", "properties": { "nlc_id": 6850, "tlc_id": "CLT", "name": "Clacton" }, "geometry": { "type": "Point", "coordinates": [ 1.15414, 51.79395 ] } },
{ "type": "Feature", "properties": { "nlc_id": 5555, "tlc_id": "CLA", "name": "Clandon" }, "geometry": { "type": "Point", "coordinates": [ -0.50276, 51.26395 ] } },
{ "type": "Feature", "properties": { "nlc_id": 2653, "tlc_id": "CPY", "name": "Clapham (North Yorkshire)" }, "geometry": { "type": "Point", "coordinates": [ -2.41039, 54.10539 ] } },
{ "type": "Feature", "properties": { "nlc_id": 5301, "tlc_id": "CLP", "name": "Clapham High Street" }, "geometry": { "type": "Point", "coordinates": [ -0.1325, 51.46542 ] } },
{ "type": "Feature", "properties": { "nlc_id": 5595, "tlc_id": "CLJ", "name": "Clapham Junction" }, "geometry": { "type": "Point", "coordinates": [ -0.17027, 51.46413 ] } },
{ "type": "Feature", "properties": { "nlc_id": 6926, "tlc_id": "CPT", "name": "Clapton" }, "geometry": { "type": "Point", "coordinates": [ -0.057, 51.56159 ] } },
{ "type": "Feature", "properties": { "nlc_id": 4069, "tlc_id": "CLR", "name": "Clarbeston Road" }, "geometry": { "type": "Point", "coordinates": [ -4.88362, 51.85163 ] } },
{ "type": "Feature", "properties": { "nlc_id": 9792, "tlc_id": "CKS", "name": "Clarkston" }, "geometry": { "type": "Point", "coordinates": [ -4.27568, 55.78939 ] } },
{ "type": "Feature", "properties": { "nlc_id": 4593, "tlc_id": "CLV", "name": "Claverdon" }, "geometry": { "type": "Point", "coordinates": [ -1.69657, 52.27705 ] } },
{ "type": "Feature", "properties": { "nlc_id": 5556, "tlc_id": "CLG", "name": "Claygate" }, "geometry": { "type": "Point", "coordinates": [ -0.34823, 51.36116 ] } },
{ "type": "Feature", "properties": { "nlc_id": 6274, "tlc_id": "CLE", "name": "Cleethorpes" }, "geometry": { "type": "Point", "coordinates": [ -0.02919, 53.56189 ] } },
{ "type": "Feature", "properties": { "nlc_id": 9718, "tlc_id": "CEA", "name": "Cleland" }, "geometry": { "type": "Point", "coordinates": [ -3.91028, 55.80469 ] } },
{ "type": "Feature", "properties": { "nlc_id": 2795, "tlc_id": "CLI", "name": "Clifton" }, "geometry": { "type": "Point", "coordinates": [ -2.31476, 53.52248 ] } },
{ "type": "Feature", "properties": { "nlc_id": 3202, "tlc_id": "CFN", "name": "Clifton Down" }, "geometry": { "type": "Point", "coordinates": [ -2.61177, 51.46449 ] } },
{ "type": "Feature", "properties": { "nlc_id": 2574, "tlc_id": "CLH", "name": "Clitheroe" }, "geometry": { "type": "Point", "coordinates": [ -2.39435, 53.87346 ] } },
{ "type": "Feature", "properties": { "nlc_id": 5048, "tlc_id": "CLK", "name": "Clock House" }, "geometry": { "type": "Point", "coordinates": [ -0.04064, 51.40853 ] } },
{ "type": "Feature", "properties": { "nlc_id": 4070, "tlc_id": "CUW", "name": "Clunderwen" }, "geometry": { "type": "Point", "coordinates": [ -4.73191, 51.8405 ] } },
{ "type": "Feature", "properties": { "nlc_id": 9855, "tlc_id": "CYK", "name": "Clydebank" }, "geometry": { "type": "Point", "coordinates": [ -4.40446, 55.90074 ] } },
{ "type": "Feature", "properties": { "nlc_id": 9747, "tlc_id": "CBC", "name": "Coatbridge Central" }, "geometry": { "type": "Point", "coordinates": [ -4.03193, 55.86255 ] } },
{ "type": "Feature", "properties": { "nlc_id": 9752, "tlc_id": "CBS", "name": "Coatbridge Sunnyside" }, "geometry": { "type": "Point", "coordinates": [ -4.02832, 55.86688 ] } },
{ "type": "Feature", "properties": { "nlc_id": 9762, "tlc_id": "COA", "name": "Coatdyke" }, "geometry": { "type": "Point", "coordinates": [ -4.00502, 55.86438 ] } },
{ "type": "Feature", "properties": { "nlc_id": 5557, "tlc_id": "CSD", "name": "Cobham & Stoke D'abernon" }, "geometry": { "type": "Point", "coordinates": [ -0.38933, 51.31804 ] } },
{ "type": "Feature", "properties": { "nlc_id": 4616, "tlc_id": "CSL", "name": "Codsall" }, "geometry": { "type": "Point", "coordinates": [ -2.20178, 52.62726 ] } },
{ "type": "Feature", "properties": { "nlc_id": 3828, "tlc_id": "CGN", "name": "Cogan" }, "geometry": { "type": "Point", "coordinates": [ -3.18913, 51.44594 ] } },
{ "type": "Feature", "properties": { "nlc_id": 6861, "tlc_id": "COL", "name": "Colchester" }, "geometry": { "type": "Point", "coordinates": [ 0.89264, 51.90066 ] } },
{ "type": "Feature", "properties": { "nlc_id": 6853, "tlc_id": "CET", "name": "Colchester Town" }, "geometry": { "type": "Point", "coordinates": [ 0.9048, 51.88641 ] } },
{ "type": "Feature", "properties": { "nlc_id": 9882, "tlc_id": "CEH", "name": "Coleshill Parkway" }, "geometry": { "type": "Point", "coordinates": [ -1.70818, 52.5165 ] } },
{ "type": "Feature", "properties": { "nlc_id": 6349, "tlc_id": "CLM", "name": "Collingham" }, "geometry": { "type": "Point", "coordinates": [ -0.75038, 53.14407 ] } },
{ "type": "Feature", "properties": { "nlc_id": 5457, "tlc_id": "CLL", "name": "Collington" }, "geometry": { "type": "Point", "coordinates": [ 0.45789, 50.83922 ] } },
{ "type": "Feature", "properties": { "nlc_id": 2562, "tlc_id": "CNE", "name": "Colne" }, "geometry": { "type": "Point", "coordinates": [ -2.18187, 53.85474 ] } },
{ "type": "Feature", "properties": { "nlc_id": 4876, "tlc_id": "CWL", "name": "Colwall" }, "geometry": { "type": "Point", "coordinates": [ -2.35697, 52.07983 ] } },
{ "type": "Feature", "properties": { "nlc_id": 2451, "tlc_id": "CWB", "name": "Colwyn Bay" }, "geometry": { "type": "Point", "coordinates": [ -3.72546, 53.29635 ] } },
{ "type": "Feature", "properties": { "nlc_id": 3005, "tlc_id": "CME", "name": "Combe" }, "geometry": { "type": "Point", "coordinates": [ -1.39408, 51.83255 ] } },
{ "type": "Feature", "properties": { "nlc_id": 7515, "tlc_id": "COM", "name": "Commondale" }, "geometry": { "type": "Point", "coordinates": [ -0.97513, 54.48128 ] } },
{ "type": "Feature", "properties": { "nlc_id": 1227, "tlc_id": "CNG", "name": "Congleton" }, "geometry": { "type": "Point", "coordinates": [ -2.19259, 53.15784 ] } },
{ "type": "Feature", "properties": { "nlc_id": 6488, "tlc_id": "CNS", "name": "Conisbrough" }, "geometry": { "type": "Point", "coordinates": [ -1.23432, 53.4893 ] } },
{ "type": "Feature", "properties": { "nlc_id": 8708, "tlc_id": "CON", "name": "Connel Ferry" }, "geometry": { "type": "Point", "coordinates": [ -5.3855, 56.45241 ] } },
{ "type": "Feature", "properties": { "nlc_id": 6393, "tlc_id": "CBD", "name": "Conon Bridge" }, "geometry": { "type": "Point", "coordinates": [ -4.44044, 57.56183 ] } },
{ "type": "Feature", "properties": { "nlc_id": 8470, "tlc_id": "CEY", "name": "Cononley" }, "geometry": { "type": "Point", "coordinates": [ -2.01207, 53.91757 ] } },
{ "type": "Feature", "properties": { "nlc_id": 3624, "tlc_id": "CNP", "name": "Conway Park" }, "geometry": { "type": "Point", "coordinates": [ -3.0227, 53.39335 ] } },
{ "type": "Feature", "properties": { "nlc_id": 2486, "tlc_id": "CNW", "name": "Conwy" }, "geometry": { "type": "Point", "coordinates": [ -3.83057, 53.28009 ] } },
{ "type": "Feature", "properties": { "nlc_id": 5458, "tlc_id": "COB", "name": "Cooden Beach" }, "geometry": { "type": "Point", "coordinates": [ 0.42688, 50.8333 ] } },
{ "type": "Feature", "properties": { "nlc_id": 3019, "tlc_id": "COO", "name": "Cookham" }, "geometry": { "type": "Point", "coordinates": [ -0.72207, 51.55741 ] } },
{ "type": "Feature", "properties": { "nlc_id": 5336, "tlc_id": "CBR", "name": "Cooksbridge" }, "geometry": { "type": "Point", "coordinates": [ -0.00918, 50.90369 ] } },
{ "type": "Feature", "properties": { "nlc_id": 3570, "tlc_id": "COE", "name": "Coombe" }, "geometry": { "type": "Point", "coordinates": [ -4.48192, 50.44585 ] } },
{ "type": "Feature", "properties": { "nlc_id": 5821, "tlc_id": "COP", "name": "Copplestone" }, "geometry": { "type": "Point", "coordinates": [ -3.75163, 50.8144 ] } },
{ "type": "Feature", "properties": { "nlc_id": 7504, "tlc_id": "CRB", "name": "Corbridge" }, "geometry": { "type": "Point", "coordinates": [ -2.0184, 54.96628 ] } },
{ "type": "Feature", "properties": { "nlc_id": 1847, "tlc_id": "COR", "name": "Corby" }, "geometry": { "type": "Point", "coordinates": [ -0.68832, 52.48882 ] } },
{ "type": "Feature", "properties": { "nlc_id": 9627, "tlc_id": "CKH", "name": "Corkerhill Glasgow" }, "geometry": { "type": "Point", "coordinates": [ -4.33433, 55.83754 ] } },
{ "type": "Feature", "properties": { "nlc_id": 2049, "tlc_id": "CKL", "name": "Corkickle" }, "geometry": { "type": "Point", "coordinates": [ -3.5822, 54.54169 ] } },
{ "type": "Feature", "properties": { "nlc_id": 8824, "tlc_id": "CPA", "name": "Corpach" }, "geometry": { "type": "Point", "coordinates": [ -5.12201, 56.84289 ] } },
{ "type": "Feature", "properties": { "nlc_id": 8825, "tlc_id": "CRR", "name": "Corrour" }, "geometry": { "type": "Point", "coordinates": [ -4.69064, 56.76028 ] } },
{ "type": "Feature", "properties": { "nlc_id": 3905, "tlc_id": "COY", "name": "Coryton" }, "geometry": { "type": "Point", "coordinates": [ -3.23186, 51.52039 ] } },
{ "type": "Feature", "properties": { "nlc_id": 1143, "tlc_id": "CSY", "name": "Coseley" }, "geometry": { "type": "Point", "coordinates": [ -2.08579, 52.54505 ] } },
{ "type": "Feature", "properties": { "nlc_id": 4617, "tlc_id": "COS", "name": "Cosford" }, "geometry": { "type": "Point", "coordinates": [ -2.30029, 52.64481 ] } },
{ "type": "Feature", "properties": { "nlc_id": 5896, "tlc_id": "CSA", "name": "Cosham" }, "geometry": { "type": "Point", "coordinates": [ -1.06733, 50.84186 ] } },
{ "type": "Feature", "properties": { "nlc_id": 8056, "tlc_id": "CGM", "name": "Cottingham" }, "geometry": { "type": "Point", "coordinates": [ -0.4064, 53.78164 ] } },
{ "type": "Feature", "properties": { "nlc_id": 8505, "tlc_id": "COT", "name": "Cottingley" }, "geometry": { "type": "Point", "coordinates": [ -1.5877, 53.76781 ] } },
{ "type": "Feature", "properties": { "nlc_id": 5408, "tlc_id": "CDS", "name": "Coulsdon South" }, "geometry": { "type": "Point", "coordinates": [ -0.13787, 51.31578 ] } },
{ "type": "Feature", "properties": { "nlc_id": 5382, "tlc_id": "CDN", "name": "Coulsdon Town" }, "geometry": { "type": "Point", "coordinates": [ -0.13445, 51.32198 ] } },
{ "type": "Feature", "properties": { "nlc_id": 1030, "tlc_id": "COV", "name": "Coventry" },